,City Name,Cloudiness,Country,Date,Humidity,Latitude,Longitude,Max Temperature,Wind Speed
0,Namatanai,71,PG,1580042604,77,-3.67,152.43,82.9,2.35
1,Caceres,1,ES,1580042604,79,39.52,-6.37,48.99,1.99
2,New Norfolk,73,AU,1580042604,56,-42.78,147.06,60.01,3.94
3,Rikitea,50,PF,1580042605,76,-23.12,-134.97,78.98,11.77
4,Koumac,100,NC,1580042605,85,-20.57,164.28,73.36,4.41
5,Marsaxlokk,11,MT,1580042605,87,35.84,14.54,63.0,3.0
6,Mataura,100,NZ,1580042605,84,-46.19,168.86,57.99,0.43
7,Atuona,2,PF,1580042605,78,-9.8,-139.03,80.17,13.8
8,Torbay,7,CA,1580042605,83,47.67,-52.73,21.99,7.47
9,Kenai,0,US,1580042429,70,60.55,-151.26,3.99,4.0
10,Kapaa,32,US,1580042606,59,22.08,-159.32,72.0,6.55
11,City of San Pedro,60,PH,1580042606,87,14.35,121.02,81.0,3.0
12,Laas,75,IT,1580042606,60,46.62,10.7,42.8,1.12
13,Flin Flon,82,CA,1580042606,96,54.77,-101.86,7.38,4.72
14,Jamestown,99,US,1580042607,95,42.1,-79.24,33.01,8.99
15,Tiksi,0,RU,1580042607,68,71.69,128.87,-30.41,3.87
16,Cape Town,40,ZA,1580042376,40,-33.93,18.42,72.0,18.34
17,Mount Gambier,100,AU,1580042459,81,-37.83,140.77,56.08,0.2
18,Vaini,23,TO,1580042607,85,-21.2,-175.2,79.52,14.25
19,Vysokogornyy,100,RU,1580042607,99,50.12,139.15,-11.85,3.74
20,Avarua,100,CK,1580042608,85,-21.21,-159.78,80.1,9.24
21,Matamoros,66,MX,1580042608,76,25.53,-103.25,50.0,3.33
22,Grand Gaube,75,MU,1580042608,88,-20.01,57.66,79.0,10.29
23,Albany,53,US,1580042608,90,42.6,-73.97,35.01,4.38
24,Hofn,100,IS,1580042608,93,64.25,-15.21,37.29,32.95
25,Harindanga,0,IN,1580042608,57,22.04,88.32,68.76,8.72
26,Rio de Jesus,0,PA,1580042609,90,7.98,-81.16,69.76,4.85
27,Bathsheba,98,BB,1580042609,76,13.22,-59.52,77.86,13.02
28,Seminole,35,US,1580042609,99,28.71,-81.21,50.0,3.87
29,Port Said,1,EG,1580042609,56,31.26,32.28,57.42,4.03
30,Labe,48,GN,1580042609,7,11.32,-12.28,91.08,8.48
31,Hermanus,28,ZA,1580042610,88,-34.42,19.23,72.0,5.99
32,Punta Arenas,84,CL,1580042610,62,-53.15,-70.92,53.01,24.0
33,Lagoa,100,PT,1580042610,67,39.05,-27.98,57.29,1.23
34,San Jeronimo,100,PE,1580042610,89,-11.95,-75.28,43.39,1.88
35,Thompson,84,CA,1580042611,97,55.74,-97.86,-4.34,5.08
36,Barth,75,DE,1580042611,87,54.36,12.72,39.0,6.93
37,Bluff,88,NZ,1580042611,84,-46.6,168.33,57.99,2.48
38,Bredasdorp,24,ZA,1580042611,49,-34.53,20.04,68.0,20.8
39,Chapais,100,CA,1580042611,97,49.78,-74.85,24.98,4.56
40,Ballina,2,AU,1580042611,94,-28.87,153.57,73.99,11.5
41,Lebu,71,CL,1580042612,81,-37.62,-73.65,63.93,6.82
42,Kyustendil,100,BG,1580042612,50,42.28,22.69,53.01,3.78
43,Ust-Nera,100,RU,1580042612,99,64.57,143.2,-37.01,2.73
44,Butaritari,61,KI,1580042612,73,3.07,172.79,85.06,10.74
45,Saskylakh,98,RU,1580042612,94,71.92,114.08,-19.16,12.12
46,Qaanaaq,3,GL,1580042613,52,77.48,-69.36,-11.4,5.48
47,Ostrovnoy,100,RU,1580042613,94,68.05,39.51,1.6,8.46
48,Sinnamary,94,GF,1580042613,83,5.38,-52.95,80.06,17.92
49,Guaranda,100,EC,1580042613,89,-1.6,-79.0,47.8,3.78
50,Lakselv,100,NO,1580042613,81,70.05,24.97,3.99,10.0
51,Cabo San Lucas,0,MX,1580042613,89,22.89,-109.91,61.0,1.01
52,Mackenzie,98,CA,1580042614,94,55.3,-123.17,22.33,2.82
53,Auchterarder,97,GB,1580042614,80,56.3,-3.71,46.0,4.0
54,Hong Kong,64,HK,1580042511,83,22.29,114.16,57.99,1.01
55,Shingu,100,JP,1580042614,82,33.73,135.98,55.04,23.4
56,Sohag,0,EG,1580042614,19,26.56,31.69,64.65,5.46
57,Barranca,58,PE,1580042614,90,-10.75,-77.77,71.02,12.01
58,Port Alfred,100,ZA,1580042614,76,-33.59,26.89,69.01,11.01
59,Yellowknife,100,CA,1580042615,92,62.46,-114.35,12.0,3.0
60,Norman Wells,100,CA,1580042615,97,65.28,-126.83,-20.83,4.47
61,Busselton,41,AU,1580042615,33,-33.65,115.33,77.0,17.11
62,Ushuaia,100,AR,1580042615,96,-54.8,-68.3,40.53,2.98
63,Saint Anthony,90,US,1580042615,85,45.02,-93.22,26.6,3.36
64,Puerto Ayora,93,EC,1580042615,24,-0.74,-90.35,75.0,1.01
65,Kainantu,83,PG,1580042615,97,-6.29,145.87,61.36,4.03
66,La Ronge,19,CA,1580042616,97,55.1,-105.28,10.53,1.83
67,Le Port,63,RE,1580042616,96,-20.94,55.29,78.01,1.01
68,Eureka,100,US,1580042337,64,40.8,-124.16,53.01,1.99
69,Barrow,90,US,1580042616,68,71.29,-156.79,-18.4,10.29
70,Isangel,46,VU,1580042617,83,-19.55,169.27,78.04,12.64
71,Vestmannaeyjar,40,IS,1580042617,80,63.44,-20.27,39.2,17.22
72,Kieta,38,PG,1580042617,77,-6.22,155.63,82.29,3.56
73,Klaksvik,83,FO,1580042617,63,62.23,-6.59,43.02,33.64
74,Saldanha,2,ZA,1580042617,43,-33.01,17.94,71.6,17.22
75,Pio XII,93,BR,1580042617,82,-3.83,-45.15,83.73,1.19
76,Dolinsk,0,RU,1580042617,74,47.35,142.8,8.22,9.06
77,Port Elizabeth,79,ZA,1580042618,49,-33.92,25.57,73.4,35.57
78,Anchorage,1,US,1580042487,69,61.22,-149.9,-5.01,8.14
79,Pestravka,99,RU,1580042619,93,52.41,49.96,27.41,17.02
80,Kimberley,20,ZA,1580042619,24,-28.73,24.76,91.4,17.22
81,Husavik,90,IS,1580042619,100,66.04,-17.34,28.4,14.99
82,Porto-Novo,75,BJ,1580042619,10,6.5,2.6,95.72,3.09
83,Severo-Kuril'sk,100,RU,1580042619,92,50.68,156.12,17.83,31.85
84,Faanui,18,PF,1580042619,75,-16.48,-151.75,82.17,8.93
85,Puerto Leguizamo,100,CO,1580042619,97,-0.19,-74.78,72.88,2.04
86,Tamandare,24,BR,1580042620,83,-8.76,-35.1,81.1,13.27
87,Flinders,4,AU,1580042620,81,-34.58,150.86,79.0,7.0
88,Tuktoyaktuk,100,CA,1580042620,94,69.45,-133.04,-16.38,12.73
89,San Jose,90,US,1580042362,100,37.34,-121.89,57.0,3.36
90,Dikson,98,RU,1580042620,96,73.51,80.55,-5.19,2.42
91,Hithadhoo,100,MV,1580042621,81,-0.6,73.08,82.4,15.43
92,Touros,84,BR,1580042621,82,-5.2,-35.46,82.22,14.83
93,La Rioja,23,ES,1580042412,70,42.25,-2.5,41.0,1.01
94,Port Lincoln,7,AU,1580042621,82,-34.73,135.87,65.41,9.48
95,Volokolamsk,69,RU,1580042621,78,56.03,35.97,30.61,12.41
96,Carnarvon,0,AU,1580042621,73,-24.87,113.63,78.26,24.79
97,Belle Fourche,90,US,1580042621,51,44.67,-103.85,41.0,10.6
98,Talnakh,100,RU,1580042622,95,69.49,88.4,2.23,6.11
99,Ancud,11,CL,1580042622,88,-41.87,-73.82,56.44,3.33
100,Yangi Marg`ilon,100,UZ,1580042622,58,40.43,71.72,45.57,7.02
101,Grindavik,75,IS,1580042622,86,63.84,-22.43,35.6,20.8
102,Ilulissat,100,GL,1580042622,65,69.22,-51.1,6.8,9.17
103,Lavrentiya,0,RU,1580042622,74,65.58,-171.0,-14.44,0.78
104,Najran,28,SA,1580042623,30,17.49,44.13,61.74,7.92
105,Hambantota,66,LK,1580042623,76,6.12,81.12,81.21,23.55
106,Guarapari,100,BR,1580042623,97,-20.67,-40.5,78.01,1.99
107,Coquimbo,77,CL,1580042623,91,-29.95,-71.34,63.59,4.88
108,Ixtapa,98,MX,1580042623,100,20.7,-105.2,69.01,2.33
109,Malibu,90,US,1580042623,87,34.01,-118.81,57.0,6.93
110,Codrington,100,AU,1580042623,74,-38.27,141.97,60.67,6.8
111,Longyearbyen,0,SJ,1580042624,58,78.22,15.64,-9.92,1.7
112,Portland,90,US,1580042509,87,45.52,-122.68,53.01,3.36
113,Mahebourg,75,MU,1580042624,88,-20.41,57.7,79.0,10.29
114,Sao Miguel do Araguaia,100,BR,1580042624,95,-13.28,-50.16,74.12,4.72
115,Maniitsoq,100,GL,1580042624,64,65.42,-52.9,12.0,6.55
116,Muisne,99,EC,1580042624,88,0.6,-80.03,76.35,6.8
117,Ruteng,80,ID,1580042625,95,-8.61,120.47,72.59,0.2
118,Kununurra,100,AU,1580042625,49,-15.77,128.73,89.78,8.66
119,Seoul,100,KR,1580042352,56,37.57,126.98,43.03,13.4
120,Tomatlan,99,MX,1580042625,96,19.93,-105.25,60.87,2.82
121,Pevek,100,RU,1580042625,96,69.7,170.31,-7.29,1.32
122,Ariquemes,99,BR,1580042625,81,-9.91,-63.04,79.74,0.56
123,Trairi,20,BR,1580042626,69,-3.28,-39.27,83.97,7.67
124,Chokurdakh,100,RU,1580042626,97,70.63,147.92,-19.17,5.57
125,Saint George,1,US,1580042626,80,37.1,-113.58,37.99,3.36
126,Bakel,100,SN,1580042626,5,14.9,-12.46,95.32,14.09
127,Padang,100,ID,1580042626,97,-0.95,100.35,71.1,0.58
128,Hobart,83,AU,1580042410,59,-42.88,147.33,60.01,3.0
129,Dawson Creek,0,CA,1580042627,81,55.77,-120.24,19.38,1.92
130,Sechura,100,PE,1580042627,90,-5.56,-80.82,73.6,7.31
131,Egvekinot,60,RU,1580042627,71,66.32,-179.17,-6.16,3.22
132,Bethel,20,US,1580042627,87,41.37,-73.41,37.0,7.2
133,Castro,0,BR,1580042627,59,-24.79,-50.01,75.97,1.21
134,Mar del Plata,64,AR,1580042338,52,-38.0,-57.56,73.99,1.99
135,Marawi,58,PH,1580042627,86,8.0,124.29,81.0,1.99
136,Sancti Spiritus,0,CU,1580042628,90,21.93,-79.44,62.33,2.91
137,Sao Filipe,35,CV,1580042628,64,14.9,-24.5,76.03,17.18
138,Jiayuguan,0,CN,1580042628,66,39.82,98.3,19.94,1.61
139,Manzhouli,76,CN,1580042344,100,49.6,117.43,-2.85,2.48
140,Chumikan,0,RU,1580042629,77,54.72,135.31,-7.08,16.55
141,Pozo Colorado,69,PY,1580042629,36,-23.49,-58.8,83.75,3.62
142,Koumra,8,TD,1580042629,6,8.91,17.55,94.19,6.89
143,Ponta Delgada,100,PT,1580042629,77,37.73,-25.67,61.02,5.5
144,Machilipatnam,6,IN,1580042629,66,16.17,81.13,78.76,8.03
145,Qaqortoq,7,GL,1580042347,61,60.72,-46.03,12.2,13.29
146,Pangkalanbuun,51,ID,1580042414,94,-2.68,111.62,77.11,3.24
147,East London,40,ZA,1580042630,68,-33.02,27.91,69.8,31.09
148,Bac Lieu,6,VN,1580042514,75,9.29,105.72,76.93,6.11
149,Vardo,100,NO,1580042630,75,70.37,31.11,21.63,24.61
150,Mackay,100,AU,1580042630,87,-21.15,149.2,78.01,2.95
151,Ribeira Grande,100,PT,1580042630,77,38.52,-28.7,56.23,7.11
152,Kudat,58,MY,1580042630,88,6.88,116.85,82.0,5.99
153,Nanakuli,1,US,1580042631,73,21.39,-158.15,73.99,4.0
154,Shenzhen,64,CN,1580042537,80,22.55,114.07,57.99,3.0
155,Okhotsk,100,RU,1580042631,88,59.38,143.3,-6.29,14.9
156,Iqaluit,90,CA,1580042631,59,63.75,-68.51,-31.0,11.99
157,Buraidah,0,SA,1580042631,34,26.33,43.98,55.78,7.72
158,Saint George's,67,GD,1580042631,78,12.06,-61.75,78.73,12.01
159,Bambous Virieux,75,MU,1580042631,88,-20.34,57.76,79.0,10.29
160,Boddam,100,GB,1580042632,12,57.47,-1.78,45.0,8.99
161,Port Hardy,100,CA,1580042632,99,50.7,-127.42,38.46,1.12
162,North Bend,100,US,1580042632,96,43.41,-124.22,50.0,8.75
163,Constitucion,0,CL,1580042632,68,-35.33,-72.42,67.23,2.89
164,Naze,100,JP,1580042633,92,28.37,129.48,69.17,21.68
165,Giohar,27,SO,1580042633,30,2.78,45.5,98.11,14.54
166,Alice Springs,0,AU,1580042633,11,-23.7,133.88,82.98,12.57
167,Kavieng,46,PG,1580042633,76,-2.57,150.8,84.47,10.2
168,Sorrento,39,IT,1580042633,81,40.63,14.37,55.99,4.05
169,Mersa Matruh,57,EG,1580042633,64,31.35,27.25,57.06,1.25
170,Port-Gentil,58,GA,1580042633,75,-0.72,8.78,83.59,7.38
171,Markala,78,ML,1580042634,5,13.7,-6.07,93.67,16.22
172,Fortuna,100,US,1580042634,98,40.6,-124.16,53.01,5.44
173,Valdez,100,EC,1580042634,94,1.25,-78.98,73.87,3.83
174,Tinskoy,89,RU,1580042634,91,56.15,96.92,16.34,5.64
175,Hilo,25,US,1580042634,89,19.73,-155.09,64.99,4.0
176,Arrondissement de La Rochelle,20,FR,1580042635,83,46.25,-1.0,52.0,7.0
177,Yerbogachen,88,RU,1580042635,83,61.28,108.01,15.71,16.37
178,San Quintin,17,MX,1580042635,21,30.48,-115.95,42.01,4.0
179,Upernavik,96,GL,1580042635,96,72.79,-56.15,-17.01,6.11
180,Necochea,51,AR,1580042441,40,-38.55,-58.74,73.0,7.0
181,Bandarbeyla,0,SO,1580042635,79,9.49,50.81,78.28,20.92
182,Koutsouras,63,GR,1580042635,75,35.03,25.95,57.27,13.18
183,Saint-Philippe,47,RE,1580042636,78,-21.36,55.77,78.01,22.06
184,Provideniya,0,RU,1580042636,82,64.38,-173.3,-6.7,1.88
185,Adrar,35,MR,1580042636,14,20.5,-10.07,82.49,13.06
186,Dickinson,90,US,1580042636,93,29.46,-95.05,64.99,3.36
187,Chui,20,UY,1580042636,63,-33.7,-53.46,74.12,6.55
188,Khatanga,96,RU,1580042637,100,71.97,102.5,-21.21,2.66
189,Ugoofaaru,64,MV,1580042637,72,5.67,73.0,82.06,5.7
190,Kupang,68,ID,1580042637,74,-10.17,123.58,84.96,6.04
191,Sayansk,90,RU,1580042637,91,54.11,102.16,10.9,2.55
192,Dunedin,86,NZ,1580042637,93,-45.87,170.5,55.99,1.01
193,Katsuura,97,JP,1580042637,94,35.13,140.3,44.01,17.76
194,Nurota,0,UZ,1580042637,70,40.56,65.69,30.9,6.73
195,Tocopilla,34,CL,1580042638,65,-22.09,-70.2,64.94,0.51
196,Cherskiy,100,RU,1580042638,94,68.75,161.3,-17.34,3.31
197,San Cristobal,97,VE,1580042638,96,7.77,-72.22,55.6,2.13
198,Atambua,31,ID,1580042638,86,-9.11,124.89,78.03,1.43
199,Hamilton,90,US,1580042372,100,39.18,-84.53,33.01,9.17
200,Omagari,60,JP,1580042639,63,39.45,140.48,28.99,1.99
201,Tallinn,92,EE,1580042585,79,59.44,24.75,43.0,10.0
202,Miyako,63,JP,1580042639,66,39.64,141.95,29.59,5.21
203,Elko,100,US,1580042640,81,41.0,-115.5,34.0,1.99
204,Nikolskoye,100,RU,1580042640,94,59.7,30.79,37.0,4.0
205,Esperance,27,AU,1580042640,89,-33.87,121.9,67.51,14.18
206,Boyolangu,57,ID,1580042640,90,-8.12,111.89,77.04,2.21
207,Ofunato,13,JP,1580042640,82,39.07,141.72,25.74,5.55
208,Ballia,0,IN,1580042641,66,25.76,84.15,61.52,5.26
209,Betong,66,TH,1580042641,88,5.77,101.07,74.26,2.86
210,Ambanja,97,MG,1580042641,82,-13.68,48.45,82.63,7.56
211,Kautokeino,38,NO,1580042641,90,69.01,23.04,-1.52,3.94
212,Centralia,90,US,1580042641,100,46.72,-122.95,50.0,9.17
213,Finspang,100,SE,1580042641,84,58.71,15.77,44.01,3.0
214,College,28,US,1580042642,80,64.86,-147.8,-11.99,3.98
215,Kisesa,100,TZ,1580042642,71,-3.08,34.15,74.95,7.52
216,Komatipoort,18,ZA,1580042642,44,-25.43,31.95,99.0,1.01
217,Gejiu,0,CN,1580042642,78,23.31,103.16,43.21,2.91
218,Faxinal,0,BR,1580042642,72,-24.0,-51.32,76.75,2.17
219,Kalianget,9,ID,1580042642,72,-7.05,113.93,83.26,5.28
220,Rapid Valley,90,US,1580042643,64,44.06,-103.15,41.0,9.17
221,San Rafael,53,AR,1580042643,23,-34.62,-68.33,80.44,5.3
222,Srednekolymsk,100,RU,1580042643,95,67.45,153.68,-23.78,5.48
223,Dingle,72,PH,1580042643,89,11.0,122.67,75.99,3.49
224,Assiut,0,EG,1580042643,20,27.18,31.18,63.3,4.52
225,Sambava,88,MG,1580042644,93,-14.27,50.17,79.0,3.78
226,Tasiilaq,75,GL,1580042644,70,65.61,-37.64,32.0,23.04
227,Yarim,43,YE,1580042644,47,14.3,44.38,61.5,2.53
228,Balaghat,0,IN,1580042644,30,21.8,80.18,74.71,5.91
229,Airai,88,TL,1580042644,94,-8.93,125.41,70.47,0.4
230,Voyvozh,99,RU,1580042644,98,62.89,54.96,-2.56,3.85
231,Khandyga,0,RU,1580042645,91,62.67,135.6,-47.78,1.88
232,Takoradze,57,GH,1580042645,27,4.88,-1.76,95.9,4.09
233,Kodinsk,33,RU,1580042645,91,58.69,99.18,13.15,6.71
234,Mount Isa,100,AU,1580042431,86,-20.73,139.5,76.86,12.97
235,Qujing,0,CN,1580042645,94,25.48,103.78,32.95,5.12
236,Clyde River,90,CA,1580042646,74,70.47,-68.59,-23.8,10.29
237,Uige,100,AO,1580042646,68,-7.61,15.06,77.95,3.11
238,La Romana,0,DO,1580042646,89,18.43,-68.97,68.94,4.23
239,Arraial do Cabo,0,BR,1580042646,81,-22.97,-42.03,73.29,2.33
240,Cayenne,90,GF,1580042646,90,4.93,-52.33,78.71,6.98
241,Kitaibaraki,62,JP,1580042647,10,36.78,140.75,41.0,3.0
242,Dayong,80,CN,1580042647,90,25.02,118.29,57.09,2.37
243,Chuguyevka,0,RU,1580042647,86,44.17,133.86,2.23,2.44
244,Palmeira das Missoes,0,BR,1580042647,68,-27.9,-53.31,72.55,3.87
245,Kumul,41,CN,1580042647,69,42.8,93.45,13.98,1.92
246,Laguna,90,US,1580042647,93,38.42,-121.42,55.99,4.7
247,Salmon Arm,99,CA,1580042647,98,50.7,-119.3,32.0,4.79
248,Saint-Augustin,98,CA,1580042648,92,51.23,-58.65,20.79,12.1
249,Angoche,77,MZ,1580042648,84,-16.23,39.91,81.86,6.15
250,Benjamin Hill,0,MX,1580042648,93,30.17,-111.1,48.0,1.99
251,Sitka,100,US,1580042648,89,57.05,-135.33,39.83,11.74
252,Geraldton,78,AU,1580042648,78,-28.77,114.6,75.07,22.57
253,Green River,1,US,1580042648,79,41.53,-109.47,28.4,11.41
254,Aykhal,100,RU,1580042473,98,66.0,111.5,-15.61,4.72
255,Inverness,100,GB,1580042525,85,57.48,-4.22,48.0,5.01
256,Starkville,90,US,1580042649,100,33.45,-88.82,41.0,3.47
257,Lompoc,90,US,1580042446,100,34.64,-120.46,55.99,4.7
258,Santiago del Estero,71,AR,1580042405,43,-27.8,-64.26,83.61,10.83
259,Ponta do Sol,0,PT,1580042649,59,32.67,-17.1,63.0,3.0
260,Florina,100,GR,1580042649,54,40.78,21.41,52.0,1.01
261,Calarasi,0,MD,1580042649,45,47.25,28.31,46.0,7.0
262,Kodiak,100,US,1580042650,86,57.79,-152.41,17.64,23.44
263,Iberia,100,US,1580042650,97,29.95,-91.75,54.0,6.53
264,Hailar,0,CN,1580042650,88,49.2,119.7,3.45,6.4
265,Tyup,100,KG,1580042650,66,42.73,78.36,19.22,4.29
266,Manturovo,100,RU,1580042650,84,58.34,44.76,15.04,9.13
267,Karratha,0,AU,1580042650,76,-20.74,116.85,85.93,17.16
268,Iquique,52,CL,1580042651,74,-20.22,-70.14,67.19,3.06
269,Mergen,0,CN,1580042651,92,49.18,125.22,1.78,7.18
270,Gijang,100,KR,1580042387,72,35.24,129.21,52.21,33.91
271,Comodoro Rivadavia,14,AR,1580042566,51,-45.87,-67.5,59.95,19.24
272,Los Llanos de Aridane,20,ES,1580042651,56,28.66,-17.92,69.8,4.7
273,Kurtamysh,100,RU,1580042651,96,54.91,64.43,25.57,9.4
274,Guymon,1,US,1580042627,69,36.68,-101.48,33.8,11.41
275,George Town,60,MY,1580042652,74,5.41,100.34,84.0,10.0
276,Chatham,88,GB,1580042652,92,51.38,0.53,51.01,4.0
277,Cockburn Town,1,TC,1580042644,69,21.46,-71.14,75.74,4.25
278,Bilibino,100,RU,1580042652,89,68.05,166.44,-1.21,3.18
279,Duldurga,8,RU,1580042652,78,50.68,113.59,-0.45,0.56
280,Sanchez,13,DO,1580042653,93,19.23,-69.61,67.17,0.98
281,Puerto Madryn,0,AR,1580042442,43,-42.77,-65.04,64.89,20.76
282,Bairiki Village,15,KI,1580042653,70,1.33,172.98,85.28,6.87
283,Saint-Louis,52,SN,1580042653,18,16.33,-15.0,87.8,6.93
284,Rongcheng,100,CN,1580042653,98,30.63,117.85,35.87,2.73
285,Meulaboh,96,ID,1580042653,73,4.14,96.13,84.96,5.77
286,Kruisfontein,100,ZA,1580042653,64,-34.0,24.73,63.82,31.32
287,Dhidhdhoo,83,MV,1580042654,69,6.88,73.1,82.38,6.89
288,Kashgar,86,CN,1580042654,49,39.45,75.98,28.2,3.4
289,Amboasary,9,MG,1580042654,29,-25.03,46.38,92.88,16.13
290,Batagay,0,RU,1580042654,91,67.63,134.63,-42.97,2.59
291,Matara,99,LK,1580042654,73,5.95,80.54,80.74,6.42
292,Goderich,100,CA,1580042655,90,43.75,-81.72,35.01,1.01
293,Kabompo,100,ZM,1580042655,57,-13.59,24.2,83.8,3.49
294,Barentu,0,ER,1580042655,13,15.11,37.59,85.21,9.98
295,Saint-Michel-des-Saints,100,CA,1580042526,9,46.68,-73.92,30.99,3.18
296,Tateyama,100,JP,1580042655,94,34.98,139.87,44.01,10.02
297,Kalabo,0,ZM,1580042655,37,-14.97,22.68,87.42,6.82
298,General Roca,72,AR,1580042655,28,-39.03,-67.58,77.74,13.18
299,Tairua,0,NZ,1580042656,88,-37.02,175.85,70.0,6.35
300,Privolnyy,98,RU,1580042656,89,44.1,46.66,40.8,19.69
301,Kapuskasing,100,CA,1580042656,96,49.42,-82.43,26.49,8.1
302,Nola,79,IT,1580042656,73,40.92,14.53,55.99,1.99
303,Rognan,100,NO,1580042656,69,67.1,15.39,27.0,15.99
304,Beterou,75,BJ,1580042656,7,9.2,2.26,94.39,5.68
305,Osypenko,79,UA,1580042656,66,46.91,36.83,39.0,7.27
306,Poum,100,NC,1580042657,82,-20.23,164.02,79.52,23.44
307,Great Falls,90,US,1580042657,81,47.5,-111.3,37.0,3.36
308,Nyaunglebin,29,MM,1580042657,26,17.95,96.73,69.93,3.91
309,Jalu,50,LY,1580042657,25,29.03,21.55,64.71,9.75
310,Brae,100,GB,1580042658,88,60.4,-1.35,46.18,30.69
311,Kiama,17,AU,1580042658,81,-34.68,150.87,78.01,7.0
312,Cairns,100,AU,1580042658,97,-16.92,145.77,79.0,3.18
313,Benjamin Constant,9,BR,1580042658,82,-4.38,-70.03,77.07,1.01
314,Luderitz,0,NA,1580042658,77,-26.65,15.16,66.97,27.69
315,Taltal,31,CL,1580042658,75,-25.4,-70.48,70.43,0.98
316,Markova,89,UA,1580042658,77,48.68,24.41,36.86,4.61
317,Newport,100,GB,1580042659,93,51.59,-3.0,51.01,1.99
318,Cody,33,US,1580042659,45,44.53,-109.06,32.0,10.87
319,Sola,5,VU,1580042659,74,-13.88,167.55,83.73,11.1
320,Talcahuano,0,CL,1580042659,81,-36.72,-73.12,62.29,5.68
321,Juneau,100,US,1580042659,94,58.3,-134.42,30.99,6.73
322,Cabedelo,66,BR,1580042615,66,-6.98,-34.83,86.36,10.38
323,Haines Junction,98,CA,1580042660,99,60.75,-137.51,-18.51,5.01
324,Medea,36,DZ,1580042660,56,36.26,2.75,58.08,10.36
325,Rundu,75,NA,1580042660,37,-17.93,19.77,89.58,2.89
326,Podyuga,100,RU,1580042660,95,61.09,40.86,13.62,3.47
327,Sharjah,24,AE,1580042386,45,25.36,55.4,64.0,21.0
328,Kaitangata,100,NZ,1580042660,93,-46.28,169.85,57.79,3.56
329,Mier,100,MX,1580042661,92,26.43,-99.15,62.01,2.42
330,Nanortalik,2,GL,1580042661,68,60.14,-45.24,21.74,30.65
331,Gohadi,0,IN,1580042661,54,26.43,78.44,64.6,2.84
332,Skibbereen,100,IE,1580042661,58,51.55,-9.27,45.48,16.08
333,Inta,90,RU,1580042661,97,66.03,60.17,-5.03,5.99
334,Darapidap,86,PH,1580042661,88,17.21,120.41,71.51,2.53
335,Kahului,0,US,1580042662,75,20.89,-156.47,71.01,1.99
336,Valdivia,97,CL,1580042662,91,-39.81,-73.25,57.97,2.75
337,Simnas,90,LT,1580042662,74,54.4,23.65,39.2,14.99
338,Guerrero Negro,0,MX,1580042662,89,27.98,-114.06,58.37,5.68
339,Magole,90,TZ,1580042662,87,-6.37,37.37,79.5,6.17
340,Umm Lajj,0,SA,1580042663,9,25.02,37.27,69.89,1.68
341,Kawalu,61,ID,1580042663,92,-7.38,108.21,73.85,2.48
342,Samarai,95,PG,1580042663,88,-10.62,150.67,77.23,5.19
343,Sao Joao da Barra,87,BR,1580042663,82,-21.64,-41.05,74.93,2.01
344,Luanda,49,AO,1580042663,69,-8.84,13.23,82.18,8.81
345,Moree,76,AU,1580042663,52,-29.47,149.85,83.57,6.93
346,Taunggyi,0,MM,1580042663,38,20.78,97.03,54.9,6.4
347,Emerald,92,AU,1580042664,91,-23.53,148.17,73.0,1.99
348,Griffith,90,US,1580042664,92,41.53,-87.42,33.01,10.29
349,Salalah,0,OM,1580042549,38,17.02,54.09,81.73,22.62
350,Wewak,42,PG,1580042664,90,-3.55,143.63,78.87,8.68
351,Puerto Madero,15,MX,1580042664,72,14.72,-92.42,79.56,4.03
352,Mandalgovi,0,MN,1580042665,58,45.76,106.27,15.42,11.72
353,Rawson,9,AR,1580042500,65,-43.3,-65.1,60.76,20.89
354,Strezhevoy,100,RU,1580042665,95,60.73,77.59,1.04,5.82
355,Muros,90,ES,1580042665,63,42.78,-9.06,57.0,11.99
356,Udachny,100,RU,1580042393,97,66.42,112.4,-19.23,4.34
357,Lata,10,PT,1580042665,81,40.16,-8.33,60.01,3.0
358,Kisangani,89,CD,1580042665,48,0.52,25.2,87.8,6.93
359,San Patricio,75,MX,1580042666,77,19.22,-104.7,74.48,5.86
360,Arlit,78,NE,1580042666,4,18.74,7.39,86.99,11.45
361,Bengkulu,100,ID,1580042620,83,-3.8,102.27,78.13,1.23
362,Dustlik,76,UZ,1580042666,63,40.52,68.04,41.52,6.93
363,Inhambane,26,MZ,1580042666,63,-23.86,35.38,83.93,12.1
364,Manyana,39,BW,1580042666,17,-23.4,21.72,88.38,8.05
365,Nizwa,22,OM,1580042667,24,22.93,57.53,65.8,19.75
366,Port Alberni,100,CA,1580042667,90,49.24,-124.8,48.99,7.65
367,Yar-Sale,88,RU,1580042667,99,66.83,70.83,-8.97,2.66
368,Kocevje,87,SI,1580042667,86,45.64,14.86,51.01,1.81
369,Vostok,71,RU,1580042667,97,46.49,135.88,-4.56,5.19
370,Caravelas,100,BR,1580042667,87,-17.71,-39.25,77.83,19.95
371,Alyangula,100,AU,1580042668,76,-13.85,136.42,84.42,8.39
372,Redding,90,US,1580042427,100,40.59,-122.39,55.4,4.7
373,Copiapo,0,CL,1580042668,67,-27.37,-70.33,68.95,2.21
374,Koeru,96,EE,1580042668,88,58.96,26.03,40.84,12.03
375,Acapulco de Juarez,39,MX,1580042668,81,16.86,-99.89,67.14,3.71
376,Henties Bay,2,NA,1580042669,78,-22.12,14.28,73.0,5.99
377,Nador,75,MA,1580042413,72,35.17,-2.93,62.6,10.29
378,Bangangte,27,CM,1580042669,10,5.14,10.52,91.35,5.86
379,Rybachiy,22,RU,1580042669,69,48.71,44.74,33.01,20.0
380,Ketchikan,100,US,1580042669,95,55.34,-131.65,34.56,5.64
381,Paphos,11,CY,1580042621,62,34.77,32.42,57.0,5.99
382,Melfort,90,CA,1580042670,92,52.87,-104.62,17.6,12.75
383,Bonthe,20,SL,1580042670,47,7.53,-12.51,88.88,3.74
384,Salamanca,0,ES,1580042670,75,40.83,-6.0,46.0,5.99
385,Fairlie,100,GB,1580042670,80,55.76,-4.86,45.0,11.1
386,Kiryat Gat,0,IL,1580042461,60,31.61,34.76,63.0,1.99
387,Tukums,90,LV,1580042670,93,56.97,23.16,41.0,5.82
388,Ciudad Rio Bravo,90,MX,1580042671,100,25.98,-98.1,68.0,8.05
389,Souillac,75,MU,1580042671,88,-20.52,57.52,78.01,10.29
390,Zaraza,94,VE,1580042671,83,9.35,-65.32,74.66,5.7
391,Lorengau,90,PG,1580042671,75,-2.02,147.27,84.49,6.67
392,Nabire,100,ID,1580042671,96,-3.37,135.48,75.78,1.07
393,Kavaratti,100,IN,1580042671,65,10.57,72.64,81.66,6.38
394,Kurilsk,93,RU,1580042672,84,45.23,147.88,18.46,18.28
395,Tessalit,77,ML,1580042672,5,20.2,1.01,87.87,6.13
396,Beringovskiy,100,RU,1580042672,86,63.05,179.32,15.04,7.23
397,Sao Jose da Coroa Grande,23,BR,1580042672,83,-8.9,-35.15,81.1,13.06
398,Serebryansk,81,KZ,1580042672,85,49.69,83.29,16.41,4.65
399,Yulara,0,AU,1580042673,13,-25.24,130.99,86.72,10.76
400,Margate,100,GB,1580042557,80,51.38,1.39,51.01,15.01
401,Leinefelde-Worbis,100,DE,1580042673,100,51.38,10.33,39.99,1.97
402,Cururupu,56,BR,1580042673,87,-1.83,-44.87,82.27,4.27
403,Mahon,53,ES,1580042673,75,39.89,4.27,58.73,5.12
404,Pangody,85,RU,1580042673,100,65.85,74.49,-10.08,3.89
405,Tooele,1,US,1580042673,93,40.53,-112.3,37.99,11.41
406,Coyhaique,88,CL,1580042674,94,-45.58,-72.07,41.54,6.02
407,Palimbang,20,PH,1580042674,71,6.21,124.19,83.53,2.71
408,Nakamura,100,JP,1580042674,93,32.98,132.93,49.42,3.87
409,Kutum,0,SD,1580042674,10,14.2,24.67,71.56,15.61
410,Shahreza,11,IR,1580042674,40,32.03,51.88,38.21,3.2
411,Vao,71,NC,1580042674,83,-22.67,167.48,77.81,17.38
412,Batabano,0,CU,1580042675,70,22.72,-82.29,71.92,14.67
413,Hasaki,99,JP,1580042675,99,35.73,140.83,36.0,11.39
414,Farafangana,11,MG,1580042675,57,-22.82,47.83,79.07,8.99
415,Darhan,52,MN,1580042675,79,49.49,105.92,4.23,3.69
416,Rocha,33,UY,1580042675,42,-34.48,-54.33,75.09,5.77
417,Broome,26,US,1580042675,100,42.25,-75.83,34.0,3.0
418,Alekseyevsk,100,RU,1580042675,92,57.84,108.35,21.16,10.25
419,Leningradskiy,98,RU,1580042676,92,69.38,178.42,-9.38,4.27
420,Te Anau,100,NZ,1580042676,90,-45.42,167.72,55.22,7.07
421,Mogadishu,0,SO,1580042623,83,2.04,45.34,81.0,22.48
422,Gaza,0,PS,1580042424,49,31.5,34.47,63.0,1.99
423,Krasnyy Yar,93,RU,1580042676,51,46.53,48.35,39.0,20.0
424,Bay Roberts,44,CA,1580042655,93,47.6,-53.26,21.99,1.99
425,Stokmarknes,98,NO,1580042677,58,68.56,14.91,24.01,14.0
426,Zhongshu,34,CN,1580042677,88,24.52,103.77,36.97,0.89
427,Thinadhoo,100,MV,1580042677,80,0.53,72.93,81.9,16.69
428,Jacarau,98,BR,1580042677,59,-6.61,-35.29,87.31,8.16
429,Pisco,86,PE,1580042677,91,-13.7,-76.22,72.0,1.32
430,Westport,20,US,1580042677,78,41.14,-73.36,37.99,10.42
431,Almunecar,0,ES,1580042677,72,36.73,-3.69,60.01,4.0
432,Nizhnedevitsk,84,RU,1580042677,84,51.54,38.37,29.55,12.62
433,Saurimo,100,AO,1580042678,61,-9.66,20.39,80.44,9.86
434,Uray,100,RU,1580042678,96,60.12,64.78,4.89,4.74
435,Safford,1,US,1580042404,93,32.83,-109.71,48.0,4.85
436,Narsaq,53,GL,1580042678,61,60.92,-46.05,12.2,4.72
437,Hervey Bay,41,AU,1580042678,84,-25.3,152.85,78.01,1.99
438,Tiarei,85,PF,1580042678,69,-17.53,-149.33,80.01,12.93
439,Ascension,100,US,1580042679,94,30.22,-90.9,53.01,6.62
440,Nioro,88,GM,1580042679,6,13.35,-15.75,96.73,18.21
441,Walvis Bay,7,NA,1580042679,45,-22.96,14.51,82.4,13.87
442,Colesberg,0,ZA,1580042679,16,-30.72,25.1,85.51,27.58
443,Port Hedland,0,AU,1580042494,30,-20.32,118.57,96.31,13.24
444,Armacao de Pera,0,PT,1580042679,87,37.1,-8.36,60.01,1.99
445,Lengshuijiang,67,CN,1580042679,85,27.69,111.43,35.2,4.05
446,Erenhot,0,CN,1580042679,75,43.65,111.98,19.4,8.19
447,Keti Bandar,0,PK,1580042680,63,24.14,67.45,74.3,14.23
448,Kampot,13,KH,1580042680,78,10.62,104.18,79.7,8.16
449,Upington,0,ZA,1580042680,28,-28.45,21.26,82.4,13.87
450,Novonukutskiy,48,RU,1580042681,90,53.7,102.71,9.32,5.26
451,Vila Velha,100,BR,1580042681,79,-20.33,-40.29,78.01,0.94
452,Dauphin,100,CA,1580042525,96,51.15,-100.05,13.23,3.56
453,Aguimes,75,ES,1580042681,63,27.91,-15.45,66.99,12.75
454,Hay River,91,CA,1580042681,94,60.82,-115.8,15.98,12.06
455,Viedma,39,AR,1580042681,40,-40.81,-63.0,71.44,25.86
456,Acarau,70,BR,1580042682,66,-2.89,-40.12,86.36,8.81
457,Abu Samrah,9,SY,1580042682,63,35.3,37.18,53.22,10.85
458,Mugur-Aksy,14,RU,1580042682,79,50.35,90.5,0.1,6.93
459,Revelstoke,41,CA,1580042682,90,50.98,-118.2,15.31,3.78
460,Kondinskoye,99,RU,1580042682,96,59.65,67.41,6.39,6.49
461,Nouakchott,80,MR,1580042471,35,18.09,-15.98,79.21,13.06
462,Paamiut,19,GL,1580042682,66,61.99,-49.67,16.14,22.48
463,Boromo,21,BF,1580042683,4,11.75,-2.93,95.18,13.02
464,Moshi,100,TZ,1580042683,47,-3.35,37.33,85.84,17.72
465,Solnechnyy,40,RU,1580042683,92,50.72,136.63,-8.05,0.94
466,Filingue,63,NE,1580042683,5,14.35,3.32,86.45,21.32
467,Tall Kayf,0,TR,1580042684,32,37.08,41.07,51.1,3.98
468,Russell,100,US,1580042684,85,32.35,-85.2,36.0,3.98
469,Sindou,0,BF,1580042590,5,10.67,-5.17,94.78,8.77
470,Chadan,88,RU,1580042684,86,51.28,91.58,-2.27,1.81
471,Puerto del Rosario,40,ES,1580042684,72,28.5,-13.86,64.4,14.99
472,Pangnirtung,100,CA,1580042684,99,66.15,-65.71,-37.75,2.28
473,Morant Bay,7,JM,1580042684,95,17.88,-76.41,68.0,2.59
474,Dunmore Town,30,BS,1580042685,74,25.5,-76.65,71.94,10.13
475,Ilembula,69,TZ,1580042685,80,-8.9,34.58,71.58,6.64
476,Mareeba,100,AU,1580042685,96,-17.0,145.43,79.0,3.0
477,Campeche,0,MX,1580042410,92,19.0,-90.5,63.07,4.12
478,Korla,51,CN,1580042530,63,41.76,86.15,16.29,0.96
479,Sao Goncalo do Amarante,48,BR,1580042685,79,-3.61,-38.97,86.0,21.0
480,Puerto Baquerizo Moreno,100,EC,1580042685,87,-0.9,-89.6,75.97,15.3
481,Gamba,22,GA,1580042686,69,-2.65,10.0,85.01,8.01
482,Sterling,1,US,1580042686,100,39.01,-77.43,39.0,5.61
483,Hede,100,CN,1580042686,84,33.77,120.25,42.49,18.81
484,Mayumba,1,GA,1580042686,73,-3.43,10.66,82.49,3.36
485,Urumqi,75,CN,1580042640,95,43.8,87.6,9.01,2.04
486,Ratnagiri,1,IN,1580042686,51,16.98,73.3,82.62,7.58
487,Haifa,0,IL,1580042687,60,32.82,34.99,54.84,2.68
488,Sistranda,100,NO,1580042687,88,63.73,8.83,45.0,8.01
489,Slave Lake,0,CA,1580042687,85,55.28,-114.77,22.39,6.15
490,Glubczyce,100,PL,1580042687,82,50.2,17.83,34.0,12.55
491,Fort Nelson,80,CA,1580042687,96,58.81,-122.7,-0.08,5.91
492,Volda,100,NO,1580042687,62,62.15,6.07,46.99,11.01
493,Kysyl-Syr,100,RU,1580042688,95,63.9,122.76,-24.9,13.09
494,Cidreira,7,BR,1580042688,63,-30.18,-50.21,75.87,8.03
495,Dakar,61,SN,1580042688,18,14.69,-17.44,91.4,28.86
496,Bangsund,100,NO,1580042688,96,64.4,11.39,43.0,1.99
497,Neiafu,0,TO,1580042688,79,-18.65,-173.98,80.04,6.91
498,Coos Bay,100,US,1580042621,96,43.37,-124.22,50.0,8.52
499,Selenginsk,83,RU,1580042688,77,52.01,106.86,8.29,7.43
500,Ust'-Ilimsk,100,RU,1580042689,92,58.0,102.66,17.13,6.4
501,Kwang Binh,100,VN,1580042689,84,17.48,106.6,58.93,6.22
502,Praia,57,CV,1580042689,67,14.92,-23.51,73.54,12.91
503,Dengzhou,100,CN,1580042689,51,37.81,120.75,38.53,11.65
504,Cambridge,99,CA,1580042649,81,43.36,-80.31,35.01,3.0
505,Iguape,6,BR,1580042689,61,-24.71,-47.56,80.96,1.72
506,Whitehorse,98,CA,1580042533,75,60.72,-135.05,-8.0,3.0
507,Boguchany,13,RU,1580042689,93,58.38,97.45,9.55,3.94
508,Banikoara,27,BJ,1580042690,6,11.3,2.44,87.75,10.47
509,Sestri Levante,99,IT,1580042690,86,44.27,9.4,55.99,1.86
510,Karlstad,100,SE,1580042690,79,59.38,13.5,44.01,1.99
511,Luganville,18,VU,1580042690,95,-15.53,167.17,72.75,0.67
512,Kazanskaya,100,RU,1580042690,95,45.41,40.44,37.2,16.28
513,Ossora,85,RU,1580042690,83,59.24,163.07,25.36,11.41
514,Lunca Muresului,50,RO,1580042690,70,46.43,23.9,39.0,5.99
515,Santa Rosa,76,PH,1580042691,87,14.31,121.11,81.0,3.0
516,Port Hawkesbury,98,CA,1580042691,93,45.62,-61.35,33.01,10.0
517,Huilong,100,CN,1580042691,94,31.81,121.66,46.99,16.33
518,Labuhan,40,ID,1580042691,83,-6.88,112.21,78.33,3.96
519,Sao Gabriel da Cachoeira,97,BR,1580042691,91,-0.13,-67.09,75.97,1.86
520,Muravlenko,91,RU,1580042691,96,63.79,74.52,-1.21,9.13
521,Belaya Gora,99,RU,1580042692,97,68.53,146.42,-29.51,4.76
522,Aswan,0,EG,1580042692,21,24.09,32.91,73.99,12.24
523,Kapit,94,MY,1580042692,94,2.02,112.93,76.78,0.51
524,Gachsaran,20,IR,1580042692,62,30.36,50.8,53.6,11.41
525,Moron,6,AR,1580042692,55,-34.65,-58.62,86.0,3.0
526,Boralday,100,KZ,1580042692,93,43.36,76.86,24.94,3.02
527,Northam,100,GB,1580042693,95,51.03,-4.22,50.0,8.01
528,Vuktyl,93,RU,1580042693,96,63.86,57.31,-6.72,5.3
529,Giyani,0,ZA,1580042693,25,-23.3,30.72,97.99,5.48
530,Oddur,0,SO,1580042693,28,4.12,43.89,95.52,18.43
531,Bicester,76,GB,1580042693,90,51.9,-1.15,50.0,1.01
532,Marzuq,70,YE,1580042693,48,14.4,46.47,69.35,11.3
533,Manavalakurichi,100,IN,1580042693,70,8.13,77.3,81.52,19.93
534,De Aar,0,ZA,1580042694,12,-30.65,24.01,83.55,27.67
535,Veraval,0,IN,1580042694,34,20.9,70.37,78.69,10.42
536,Myitkyina,43,MM,1580042694,49,25.38,97.4,57.04,1.01
537,Aknada,3,RU,1580042694,92,42.4,46.17,24.87,6.22
538,Hoeganaes,100,SE,1580042694,91,56.2,12.56,42.01,5.99
539,Vila Franca do Campo,99,PT,1580042694,76,37.72,-25.43,61.29,6.13
540,Kamakwie,26,SL,1580042695,14,9.5,-12.23,102.6,0.87
541,Roald,100,NO,1580042695,62,62.58,6.13,46.99,11.01
542,Lang Son,31,VN,1580042695,67,21.83,106.73,53.87,5.26
543,Omsukchan,100,RU,1580042695,100,62.53,155.8,-26.9,8.88
544,Manakara,77,MG,1580042695,58,-22.13,48.02,80.19,6.98
545,Dingzhou,100,CN,1580042695,40,38.51,115.0,36.79,4.18
546,Durban,20,ZA,1580042695,49,-29.86,31.03,93.2,9.17
547,Formosa,0,AR,1580042582,31,-26.18,-58.18,86.58,2.39
548,Rawah,0,IQ,1580042696,40,34.48,41.91,53.28,16.58
549,Guayaramerin,100,BO,1580042696,79,-10.84,-65.36,79.54,2.01
550,Wahpeton,90,US,1580042696,92,46.27,-96.61,21.2,6.93
551,Bucerias,97,MX,1580042696,100,20.75,-105.33,69.01,4.97
