,City Name,Cloudiness,Country,Date,Humidity,Latitude,Longitude,Max Temperature,Wind Speed
0,Sitka,100,US,1579952315,70,57.05,-135.33,31.96,7.16
1,Busselton,89,AU,1579952315,74,-33.65,115.33,69.91,16.67
2,Mirabad,16,AF,1579952315,63,30.44,61.84,59.68,5.06
3,Ushuaia,90,AR,1579952315,87,-54.8,-68.3,44.6,5.82
4,Kapaa,90,US,1579952316,83,22.08,-159.32,73.4,17.22
5,Vaini,75,TO,1579952316,94,-21.2,-175.2,77.0,12.75
6,Goderich,100,CA,1579952316,95,43.75,-81.72,39.0,1.99
7,Hermanus,32,ZA,1579952316,81,-34.42,19.23,77.0,7.0
8,Rikitea,0,PF,1579952316,81,-23.12,-134.97,77.95,13.31
9,Gunnedah,75,AU,1579952317,100,-30.98,150.25,71.6,12.75
10,Airai,100,TL,1579952317,97,-8.93,125.41,70.14,1.21
11,Kodiak,83,US,1579952317,84,57.79,-152.41,18.9,21.83
12,Yellowknife,90,CA,1579952317,84,62.46,-114.35,1.4,12.75
13,Marabu,75,MY,1579952253,83,4.41,114.01,84.2,5.82
14,Carnarvon,21,AU,1579952318,62,-24.87,113.63,84.2,23.04
15,Bambous Virieux,75,MU,1579952318,83,-20.34,57.76,82.99,21.92
16,Kodinsk,100,RU,1579952318,89,58.69,99.18,26.42,7.9
17,Cape Town,75,ZA,1579952230,60,-33.93,18.42,77.0,21.92
18,Tasiilaq,40,GL,1579952318,45,65.61,-37.64,23.0,8.05
19,Lompoc,1,US,1579952318,87,34.64,-120.46,55.99,3.36
20,Codrington,33,AU,1579952318,90,-38.27,141.97,63.12,16.49
21,Chokurdakh,13,RU,1579952319,95,70.63,147.92,-32.8,2.06
22,Hobart,75,AU,1579952319,60,-42.88,147.33,69.8,8.05
23,Mercedes,0,AR,1579952319,76,-34.65,-59.43,80.01,4.0
24,Bredasdorp,20,ZA,1579952131,69,-34.53,20.04,77.0,4.7
25,Solnechnyy,0,RU,1579952319,76,50.72,136.63,-14.26,3.6
26,Joensuu,90,FI,1579952319,79,62.58,29.75,30.99,16.11
27,Paamiut,98,GL,1579952319,57,61.99,-49.67,15.55,12.48
28,Pontalina,94,BR,1579952320,93,-17.52,-49.45,73.54,9.91
29,Kathu,20,TH,1579952320,49,7.92,98.33,89.6,11.41
30,Vanimo,0,PG,1579952320,80,-2.67,141.3,83.48,13.62
31,Cidreira,0,BR,1579952141,73,-30.18,-50.21,70.75,7.81
32,Christchurch,54,NZ,1579952284,82,-43.53,172.63,64.4,14.99
33,Castro,93,BR,1579952136,75,-24.79,-50.01,65.07,0.56
34,Kavieng,2,PG,1579952320,71,-2.57,150.8,83.88,6.55
35,Saint-Philippe,100,RE,1579952320,88,-21.36,55.77,87.8,23.04
36,Nouadhibou,17,MR,1579952040,59,20.93,-17.03,64.4,18.34
37,Sao Filipe,55,CV,1579952321,57,14.9,-24.5,75.49,22.5
38,Westport,75,US,1579952278,86,41.14,-73.36,41.0,16.11
39,Port Elizabeth,5,ZA,1579952322,54,-33.92,25.57,82.4,4.7
40,Uribia,1,CO,1579952322,85,11.71,-72.27,73.67,5.39
41,Galle,100,LK,1579952322,74,6.04,80.22,81.55,4.7
42,Azul,18,AR,1579952322,79,-36.78,-59.86,73.99,1.99
43,Port Alfred,0,ZA,1579952323,79,-33.59,26.89,73.99,4.0
44,Port Lincoln,2,AU,1579952323,79,-34.73,135.87,66.96,9.51
45,Hilo,16,US,1579952323,90,19.73,-155.09,70.0,1.99
46,Veinte de Noviembre,3,MX,1579952323,67,14.98,-92.25,59.76,5.35
47,Monrovia,47,LR,1579952323,50,6.3,-10.8,88.9,2.13
48,Mataura,80,NZ,1579952324,80,-46.19,168.86,60.01,2.15
49,Tautira,40,PF,1579952324,74,-17.73,-149.15,80.6,1.12
50,Dauriya,0,RU,1579952324,84,49.93,116.87,-7.02,4.16
51,Lebu,0,CL,1579952324,58,-37.62,-73.65,60.35,5.35
52,Faanui,9,PF,1579952324,77,-16.48,-151.75,81.68,12.39
53,Bengkulu,100,ID,1579952324,93,-3.8,102.27,76.03,1.66
54,Lerwick,100,GB,1579952325,93,60.15,-1.15,46.4,26.4
55,Angra dos Reis,40,BR,1579952319,100,-23.01,-44.32,69.8,5.82
56,Tymovskoye,83,RU,1579952325,94,50.85,142.66,-14.1,3.24
57,Magdagachi,97,RU,1579952325,99,53.45,125.8,-20.49,2.51
58,Barra do Garcas,15,BR,1579952325,89,-15.89,-52.26,76.84,6.55
59,Punta Arenas,98,CL,1579952325,71,-53.15,-70.92,50.0,16.11
60,Takoradze,70,GH,1579952326,33,4.88,-1.76,94.41,5.7
61,Mahebourg,75,MU,1579952326,83,-20.41,57.7,82.99,21.92
62,Intipuca,25,SV,1579952326,68,13.2,-88.05,77.59,11.56
63,Sinazongwe,17,ZM,1579952326,63,-17.26,27.46,83.23,13.11
64,Nikolskoye,75,RU,1579952326,69,59.7,30.79,33.8,22.37
65,Norheimsund,75,NO,1579952326,100,60.37,6.15,46.0,25.28
66,Dingle,100,PH,1579952326,88,11.0,122.67,76.17,7.67
67,Saskylakh,100,RU,1579952130,91,71.92,114.08,-21.06,20.38
68,Tonota,79,BW,1579952327,45,-21.48,27.48,86.0,5.82
69,Nerchinsk,0,RU,1579952327,88,51.98,116.58,-8.48,5.1
70,Chantada,17,ES,1579952327,87,42.61,-7.77,55.99,1.12
71,Marawi,77,PH,1579952328,87,8.0,124.29,81.0,4.0
72,Jamestown,100,US,1579952276,92,42.1,-79.24,37.99,10.0
73,Nanortalik,100,GL,1579952328,83,60.14,-45.24,20.05,23.11
74,Kruisfontein,0,ZA,1579952328,55,-34.0,24.73,81.01,11.27
75,Pevek,100,RU,1579952328,96,69.7,170.31,-19.52,4.92
76,Salalah,2,OM,1579952328,72,17.02,54.09,77.13,8.21
77,Kaitangata,9,NZ,1579952329,84,-46.28,169.85,57.67,6.53
78,Asau,24,RO,1579952329,36,46.43,26.4,50.0,2.24
79,Aksu,0,CN,1579952066,70,41.12,80.26,27.23,6.35
80,Atasu,100,KZ,1579952330,92,48.68,71.64,15.69,13.51
81,Chui,18,UY,1579952330,49,-33.7,-53.46,78.3,9.53
82,Puerto Escondido,0,MX,1579952330,82,15.85,-97.07,64.8,4.45
83,Puerto Ayora,79,EC,1579952330,34,-0.74,-90.35,75.0,1.01
84,Atuona,0,PF,1579952330,78,-9.8,-139.03,80.17,13.56
85,Amapa,71,BR,1579952330,91,1.0,-52.0,75.99,3.8
86,Cheney,90,US,1579952146,93,47.49,-117.58,37.4,4.7
87,Madang,46,PG,1579952330,81,-5.22,145.8,83.57,7.99
88,Kirksville,90,US,1579952331,100,40.19,-92.58,28.4,13.87
89,Hay River,75,CA,1579952331,84,60.82,-115.8,6.8,11.41
90,Mananjary,99,MG,1579952331,73,-21.22,48.33,79.02,10.83
91,San Juan,1,AR,1579952331,28,-31.54,-68.54,86.68,16.04
92,Thompson,40,CA,1579952133,84,55.74,-97.86,3.2,3.83
93,Salamiyah,0,SY,1579952331,37,35.01,37.05,47.07,3.18
94,Nar'yan-Mar,64,RU,1579952332,99,67.67,53.09,-12.3,5.46
95,Tateyama,75,JP,1579952332,66,34.98,139.87,48.2,11.41
96,Albany,1,US,1579952116,92,42.6,-73.97,36.0,5.82
97,Bowen,100,AU,1579952332,94,-20.02,148.23,77.0,3.36
98,Fairbanks,90,US,1579952045,70,64.84,-147.72,-2.2,4.0
99,Quatre Cocos,75,MU,1579952332,83,-20.21,57.76,82.99,21.92
100,Kiruna,26,SE,1579952332,72,67.86,20.23,17.6,6.93
101,Kuusamo,75,FI,1579952333,84,65.97,29.18,6.8,9.17
102,Luderitz,0,NA,1579952333,54,-26.65,15.16,78.8,10.29
103,Kulhudhuffushi,99,MV,1579952333,71,6.62,73.07,82.53,7.94
104,Ciudad Lazaro Cardenas,17,MX,1579952333,86,17.96,-102.2,71.06,4.16
105,Byron Bay,40,AU,1579952333,83,-28.65,153.62,79.0,8.05
106,Itarema,32,BR,1579952333,67,-2.92,-39.92,86.04,9.69
107,George Town,20,MY,1579952334,66,5.41,100.34,87.8,5.82
108,Hegang,0,CN,1579952334,89,47.4,130.37,-4.72,2.3
109,Mar del Plata,67,AR,1579952334,88,-38.0,-57.56,68.0,3.36
110,Bluff,66,NZ,1579952334,80,-46.6,168.33,60.01,2.8
111,Santa Maria,0,BR,1579952334,88,-29.68,-53.81,69.8,1.12
112,Port Hedland,0,AU,1579952334,70,-20.32,118.57,89.6,18.34
113,Clemencia,20,CO,1579952334,83,10.57,-75.33,78.8,9.17
114,Yar-Sale,82,RU,1579952335,96,66.83,70.83,1.2,4.09
115,Andenes,20,NO,1579952335,73,69.31,16.12,32.0,20.8
116,Severo-Kuril'sk,100,RU,1579952335,90,50.68,156.12,16.3,49.21
117,Kristiansund,75,NO,1579952335,93,63.11,7.73,35.6,16.11
118,Itoman,75,JP,1579952335,83,26.12,127.67,73.4,8.05
119,Great Yarmouth,75,GB,1579952336,87,52.61,1.73,44.01,8.05
120,Bilibino,99,RU,1579952336,90,68.05,166.44,-15.23,2.86
121,Serowe,66,BW,1579952336,38,-22.38,26.72,83.89,3.47
122,Bukoba,100,TZ,1579952336,61,-1.33,31.81,75.2,3.94
123,Karasjok,75,NO,1579952336,92,69.47,25.51,14.0,21.92
124,Shibetsu,43,JP,1579952336,78,43.66,145.13,11.89,11.68
125,Qaanaaq,100,GL,1579952336,50,77.48,-69.36,-11.24,1.45
126,Steinbach am Taunus,75,DE,1579952336,74,50.17,8.57,37.0,2.24
127,Khatanga,94,RU,1579952337,89,71.97,102.5,-17.05,4.79
128,Dikson,100,RU,1579952337,97,73.51,80.55,-4.45,10.16
129,Portobelo,20,PA,1579952337,94,9.55,-79.65,75.2,3.36
130,Chabahar,0,IR,1579952337,57,25.29,60.64,77.0,9.17
131,Ivanjica,96,RS,1579952337,93,43.58,20.23,44.6,2.24
132,Twin Falls,45,US,1579952338,96,42.56,-114.46,33.01,10.18
133,Dudinka,40,RU,1579952338,84,69.41,86.18,8.6,20.13
134,Barrow,1,US,1579952338,74,71.29,-156.79,-23.8,6.93
135,Souillac,75,MU,1579952338,83,-20.52,57.52,82.99,21.92
136,Turukhansk,100,RU,1579952338,94,65.82,87.98,8.53,7.61
137,Otane,87,NZ,1579952339,88,-39.88,176.63,63.0,1.83
138,Mossamedes,20,AO,1579952339,69,-15.2,12.15,80.6,5.82
139,New Norfolk,75,AU,1579952339,60,-42.78,147.06,69.8,8.05
140,Ankazoabo,54,MG,1579952339,41,-22.28,44.52,89.06,3.22
141,Bayan,17,CN,1579952339,84,46.08,127.4,-6.21,0.56
142,Rio Grande,0,BR,1579952340,94,-32.03,-52.1,77.0,11.27
143,Pinega,100,RU,1579952340,95,64.7,43.39,7.18,5.75
144,Rocha,67,UY,1579952340,38,-34.48,-54.33,82.0,17.07
145,Torbay,5,CA,1579952113,78,47.67,-52.73,15.01,9.17
146,Ustye,100,RU,1579952340,93,59.63,39.74,30.27,8.77
147,Arraial do Cabo,40,BR,1579952340,88,-22.97,-42.03,75.2,14.99
148,Houston,90,US,1579951840,100,29.76,-95.36,53.01,5.17
149,Debre Tabor,78,ET,1579952341,26,11.85,38.02,75.69,16.6
150,Petropavlovka,30,RU,1579952341,86,50.61,105.32,-0.94,3.29
151,Zabid,88,YE,1579952341,58,14.2,43.32,80.6,17.27
152,Chitungwiza,72,ZW,1579952341,44,-18.01,31.08,78.8,8.05
153,Cayenne,90,GF,1579952341,94,4.93,-52.33,75.2,4.32
154,Collie,70,AU,1579952342,64,-33.37,116.15,70.97,8.63
155,Ribeira Grande,75,PT,1579952342,87,38.52,-28.7,60.8,6.93
156,Kuito,75,AO,1579952342,64,-12.38,16.93,75.2,8.05
157,Chimore,92,BO,1579952342,72,-16.98,-65.13,78.75,2.86
158,Vardo,20,NO,1579952342,67,70.37,31.11,19.4,20.8
159,Bandar,43,ID,1579952342,95,2.05,99.75,77.11,1.95
160,Buala,5,SB,1579952343,80,-8.14,159.59,79.07,5.77
161,Port-Gentil,20,GA,1579952343,100,-0.72,8.78,78.8,3.36
162,Yunguyo,94,PE,1579952343,70,-16.25,-69.08,48.2,7.11
163,Neryungri,76,RU,1579952343,82,56.67,124.65,-16.67,4.21
164,Sola,3,VU,1579952078,80,-13.88,167.55,81.97,14.63
165,El Fuerte,100,MX,1579952343,70,26.42,-108.62,63.77,0.11
166,Melenci,100,RS,1579952344,74,45.51,20.32,37.4,4.34
167,Kamina,79,CD,1579952344,57,-8.74,24.99,82.33,5.84
168,Buraidah,0,SA,1579952344,40,26.33,43.98,53.6,17.22
169,Visby,34,SE,1579952344,86,57.64,18.3,42.01,11.41
170,Iqaluit,40,CA,1579952344,67,63.75,-68.51,-25.01,8.05
171,Yuzhno-Kurilsk,100,RU,1579952345,88,44.03,145.86,15.13,21.54
172,Qiryat Shemona,0,IL,1579952345,35,33.21,35.57,57.2,5.82
173,Upernavik,100,GL,1579952345,91,72.79,-56.15,-10.66,4.81
174,Darab,0,IR,1579952345,20,28.75,54.54,55.13,3.29
175,La Ronge,90,CA,1579952345,85,55.1,-105.28,19.4,3.36
176,Butaritari,69,KI,1579952345,71,3.07,172.79,85.55,9.75
177,Umm Lajj,0,SA,1579952346,16,25.02,37.27,68.4,16.49
178,Clyde River,75,CA,1579952346,67,70.47,-68.59,-23.8,2.24
179,Nicoya,0,CR,1579952346,85,10.15,-85.45,68.0,21.0
180,Alugan,87,PH,1579952346,87,12.22,125.48,79.72,10.58
181,Kalaleh,100,IR,1579952346,30,37.38,55.49,59.0,1.86
182,Killam,100,CA,1579952346,84,52.78,-111.85,21.99,1.01
183,Sawakin,33,SD,1579952347,66,19.11,37.33,71.51,17.94
184,Harar,100,ET,1579952347,86,9.31,42.13,62.47,6.2
185,Yulara,0,AU,1579952347,8,-25.24,130.99,96.8,9.17
186,Guerrero Negro,64,MX,1579952087,89,27.98,-114.06,57.79,5.77
187,Thinadhoo,100,MV,1579952348,81,0.53,72.93,82.9,15.08
188,Pasinler,10,TR,1579952348,66,39.98,41.68,14.0,2.24
189,Ahipara,16,NZ,1579952348,78,-35.17,173.17,66.65,11.63
190,Mecca,0,SA,1579952348,16,21.43,39.83,72.77,7.36
191,Phan Thiet,74,VN,1579952348,93,10.93,108.1,71.2,4.34
192,Mount Isa,90,AU,1579952348,100,-20.73,139.5,75.2,12.75
193,Baruun-Urt,0,MN,1579952348,79,46.68,113.28,4.68,8.08
194,Valparaiso,90,CL,1579952070,93,-33.04,-71.63,60.8,2.62
195,Romny,95,UA,1579952349,88,50.75,33.47,35.37,11.65
196,Gazimurskiy Zavod,0,RU,1579952349,87,51.55,118.33,-4.27,4.97
197,Le Vauclin,20,MQ,1579952349,94,14.55,-60.84,75.99,3.36
198,Mehamn,100,NO,1579952349,81,71.04,27.85,17.91,16.08
199,Marau,0,BR,1579952349,58,-28.45,-52.2,72.07,1.68
200,Opuwo,30,NA,1579952086,25,-18.06,13.84,90.07,4.05
201,East London,20,ZA,1579952350,51,-33.02,27.91,84.2,9.17
202,Forsytheganj,100,BY,1579952350,81,52.63,29.73,36.97,15.26
203,Beloha,0,MG,1579952350,42,-25.17,45.05,87.49,20.58
204,Vila Velha,90,BR,1579952350,94,-20.33,-40.29,77.0,13.87
205,Lavrentiya,0,RU,1579952350,75,65.58,-171.0,-16.02,2.33
206,Pacific Grove,75,US,1579952351,93,36.62,-121.92,54.0,4.7
207,Rundu,25,NA,1579952351,83,-17.93,19.77,71.6,4.7
208,Mujiayingzi,0,CN,1579952351,51,42.12,118.78,21.99,0.85
209,Taoudenni,97,ML,1579952351,14,22.68,-3.98,86.95,2.13
210,Saint Anthony,90,US,1579952351,86,45.02,-93.22,30.0,9.17
211,Yeniseysk,100,RU,1579952351,92,58.45,92.17,30.33,13.35
212,Cabo San Lucas,100,MX,1579952210,84,22.89,-109.91,63.0,1.99
213,Ostrovnoy,100,RU,1579952352,93,68.05,39.51,8.62,3.58
214,Bac Lieu,39,VN,1579952223,83,9.29,105.72,75.97,7.96
215,Klaksvik,100,FO,1579952131,93,62.23,-6.59,46.4,17.22
216,Provideniya,1,RU,1579952352,93,64.38,-173.3,-9.0,6.08
217,Fayaoue,5,NC,1579952352,82,-20.65,166.53,78.96,19.95
218,Merauke,100,ID,1579952352,87,-8.47,140.33,78.3,4.81
219,Paphos,20,CY,1579952352,41,34.77,32.42,59.0,6.93
220,Hokitika,52,NZ,1579952353,91,-42.72,170.97,64.69,4.59
221,Pavilosta,50,LV,1579952353,81,56.89,21.19,42.8,8.05
222,Seoul,1,KR,1579952225,69,37.57,126.98,42.8,1.12
223,Murray Bridge,0,AU,1579952353,90,-35.12,139.27,70.0,1.99
224,Saint-Leu,81,RE,1579952353,88,-21.15,55.28,87.8,23.04
225,San Juan Bautista,90,PE,1579952353,78,-14.01,-75.74,73.4,3.36
226,Dalvik,90,IS,1579952354,90,65.97,-18.53,32.0,26.4
227,Bethel,75,US,1579952354,86,41.37,-73.41,39.99,16.11
228,Gweru,10,ZW,1579952354,36,-19.45,29.82,82.71,8.21
229,Dunda,98,TZ,1579952354,86,-8.12,34.25,75.47,3.02
230,Padrauna,0,IN,1579952354,52,26.9,83.98,61.93,3.51
231,Lakes Entrance,34,AU,1579952354,77,-37.88,147.98,66.99,5.57
232,Todos Santos,100,MX,1579952354,77,23.45,-110.22,63.0,2.42
233,Alvorada,100,BR,1579952355,95,-12.48,-49.12,73.53,1.99
234,Salaga,51,GH,1579952355,5,8.55,-0.52,96.58,8.48
235,Madinat Sittah Uktubar,0,EG,1579952355,38,29.82,31.05,59.0,9.17
236,Tommot,100,RU,1579952355,98,58.96,126.29,-16.58,1.77
237,Emerald,75,AU,1579952355,100,-23.53,148.17,75.2,12.75
238,Ancud,90,CL,1579952355,100,-41.87,-73.82,57.2,8.05
239,Philadelphia,90,US,1579952178,93,39.95,-75.16,46.99,18.34
240,Champerico,0,GT,1579952356,84,14.3,-91.92,70.79,2.33
241,Hithadhoo,69,MV,1579952356,77,-0.6,73.08,83.35,13.4
242,Carballo,27,ES,1579952356,93,43.21,-8.69,55.0,5.82
243,Palmer,20,US,1579952356,93,42.16,-72.33,37.0,4.7
244,Kokkola,82,FI,1579952356,74,63.83,23.08,36.0,4.7
245,Fortuna,100,US,1579952356,87,40.6,-124.16,57.0,4.0
246,Santa Cruz de la Palma,20,ES,1579952357,52,28.68,-17.76,66.2,4.7
247,Geraldton,0,AU,1579952357,69,-28.77,114.6,75.2,21.92
248,Hong Kong,40,HK,1579952352,88,22.29,114.16,68.0,8.05
249,Necochea,53,AR,1579952357,79,-38.55,-58.74,69.01,3.0
250,Calama,90,CL,1579952357,100,-22.47,-68.93,55.4,2.24
251,Ponta do Sol,40,PT,1579952127,55,32.67,-17.1,64.4,3.36
252,Morondava,100,MG,1579952357,67,-20.28,44.28,88.11,6.11
253,Tuktoyaktuk,100,CA,1579952136,97,69.45,-133.04,-12.86,17.25
254,Bakchar,100,RU,1579952358,89,57.02,82.07,19.08,9.24
255,Banda Aceh,61,ID,1579952358,71,5.56,95.32,77.65,5.77
256,Ixtapa,95,MX,1579952358,91,20.7,-105.2,73.99,2.82
257,Jalu,52,LY,1579952358,36,29.03,21.55,62.94,9.98
258,Alofi,100,NU,1579952358,100,-19.06,-169.92,77.0,3.36
259,San Patricio,53,MX,1579952358,80,19.22,-104.7,74.21,5.12
260,Concord,90,US,1579952105,93,37.98,-122.03,55.4,0.13
261,Foshan,90,CN,1579952359,77,23.03,113.13,64.0,8.95
262,Coyhaique,100,CL,1579952359,81,-45.58,-72.07,48.2,2.24
263,Kyra,54,RU,1579952359,81,49.58,111.98,-2.52,2.73
264,Paralimni,20,CY,1579952359,45,35.04,33.98,61.0,3.36
265,Bulembu,42,SZ,1579952359,73,-25.97,31.13,88.0,6.93
266,Rock Hill,90,US,1579952360,100,34.92,-81.03,44.01,3.36
267,Kpandae,38,GH,1579952360,6,8.47,-0.01,96.17,10.2
268,West Memphis,40,US,1579952360,86,35.15,-90.18,37.4,6.38
269,Kant,0,IN,1579952360,63,27.8,79.8,59.99,3.76
270,Lagoa,100,PT,1579952360,92,39.05,-27.98,59.83,18.61
271,Aklavik,90,CA,1579952283,76,68.22,-135.01,-9.4,14.99
272,Man,0,CI,1579952360,9,7.41,-7.55,91.09,7.16
273,Popondetta,57,PG,1579952361,94,-8.75,148.25,74.62,2.75
274,Laplace,1,US,1579952361,87,30.07,-90.48,46.0,3.65
275,Port Antonio,20,JM,1579952361,78,18.18,-76.46,75.2,6.93
276,Saint-Augustin,10,CA,1579952361,70,51.23,-58.65,6.85,10.45
277,Puerto Leguizamo,100,CO,1579952361,93,-0.19,-74.78,74.48,1.79
278,Mango,1,US,1579952361,87,27.98,-82.31,61.0,5.82
279,Bathsheba,20,BB,1579952362,83,13.22,-59.52,77.0,8.05
280,Dahuk,0,IQ,1579952362,38,36.87,42.99,46.04,7.05
281,Wau,39,SS,1579952362,11,7.7,28.0,90.28,7.38
282,Itaituba,100,BR,1579952362,90,-4.28,-55.98,77.09,3.27
283,Birjand,40,IR,1579952362,21,32.87,59.22,51.8,6.38
284,Yarkovo,100,RU,1579952135,94,57.4,67.08,5.99,8.12
285,Arrondissement de Carcassonne,90,FR,1579952362,87,43.25,2.17,55.99,16.11
286,Chernyshevskiy,100,RU,1579952363,98,63.01,112.47,-7.8,3.8
287,Taksimo,97,RU,1579952363,97,56.34,114.88,-15.07,1.14
288,Erdenet,17,MN,1579952363,64,49.03,104.08,6.58,3.65
289,Tuatapere,15,NZ,1579952363,80,-46.13,167.68,60.01,2.01
290,Assiniboia,93,CA,1579952363,79,49.63,-105.98,31.84,13.0
291,Alekseyevsk,100,RU,1579952364,94,57.84,108.35,19.53,8.28
292,Salinas,75,US,1579952192,93,36.68,-121.66,54.0,4.7
293,Dongfeng,0,CN,1579952364,84,42.64,125.51,8.37,0.63
294,Beringovskiy,100,RU,1579952364,90,63.05,179.32,16.56,13.15
295,Chapais,75,CA,1579952364,92,49.78,-74.85,6.8,6.93
296,Tessalit,98,ML,1579952364,6,20.2,1.01,88.97,14.18
297,Devils Lake,90,US,1579952364,100,48.11,-98.87,15.8,8.05
298,Amga,0,RU,1579952365,98,60.9,131.96,-37.75,2.01
299,Zhigansk,75,RU,1579952365,92,66.77,123.37,-35.97,13.09
300,Santa Lucia,20,ES,1579952365,56,27.91,-15.54,69.01,9.17
301,Laas,75,IT,1579952365,52,46.62,10.7,44.01,2.24
302,Hasaki,75,JP,1579952365,62,35.73,140.83,44.6,5.82
303,Rawson,0,AR,1579952366,73,-43.3,-65.1,60.64,6.4
304,Paita,99,PE,1579952366,71,-5.09,-81.11,76.17,8.57
305,Tiksi,0,RU,1579952366,76,71.69,128.87,-30.55,4.59
306,Erenhot,0,CN,1579952366,77,43.65,111.98,16.65,4.32
307,Saint George,1,US,1579952279,74,37.1,-113.58,39.0,3.36
308,Quang Ngai,100,VN,1579952366,83,15.12,108.8,75.67,16.11
309,Neyshabur,0,IR,1579952366,66,36.21,58.8,36.63,5.7
310,Rakiv Lis,82,UA,1579952367,74,51.62,24.92,34.86,11.43
311,Nizhniy Kuranakh,98,RU,1579952367,98,58.84,125.49,-15.3,2.19
312,Sangin,2,AF,1579952367,54,32.07,64.84,52.59,5.26
313,Norman Wells,90,CA,1579952367,76,65.28,-126.83,-7.6,18.34
314,Monor,90,HU,1579952367,100,47.35,19.45,33.01,1.12
315,Leova,0,MD,1579952367,38,46.48,28.26,42.48,6.17
316,Avera,1,US,1579952368,93,33.19,-82.53,44.6,5.82
317,Mount Gambier,90,AU,1579952368,77,-37.83,140.77,66.2,9.17
318,Yangi Marg`ilon,68,UZ,1579952368,70,40.43,71.72,42.8,2.24
319,Broken Hill,0,AU,1579952368,17,-31.95,141.43,84.2,9.17
320,Fort Morgan,1,US,1579952368,73,40.25,-103.8,35.01,3.36
321,Kaerdla,0,EE,1579952368,74,59.0,22.75,39.0,18.99
322,Araouane,100,ML,1579952368,7,18.9,-3.53,87.71,7.74
323,Mirny,20,RU,1579952369,82,62.54,113.96,-20.2,8.95
324,Yerbogachen,93,RU,1579952369,96,61.28,108.01,14.05,4.9
325,Vao,44,NC,1579952369,82,-22.67,167.48,77.76,23.76
326,Oranjestad,20,AW,1579952369,88,12.52,-70.03,75.2,3.36
327,Oxford,90,GB,1579952099,100,51.75,-1.26,44.01,6.93
328,Kavaratti,100,IN,1579952370,65,10.57,72.64,83.07,6.76
329,Yarada,20,IN,1579952370,74,17.65,83.27,80.6,10.29
330,Coquimbo,90,CL,1579952370,100,-29.95,-71.34,62.6,4.7
331,Esperance,10,AU,1579952370,68,-33.87,121.9,69.8,17.22
332,Bida,25,NG,1579952370,4,9.08,6.02,98.08,4.92
333,Keti Bandar,0,PK,1579952370,54,24.14,67.45,74.35,11.92
334,Prince Albert,90,CA,1579952370,92,53.2,-105.77,21.2,4.7
335,Cockburn Town,50,TC,1579952371,63,21.46,-71.14,75.56,8.19
336,Pisco,90,PE,1579952262,78,-13.7,-76.22,73.4,3.36
337,Huesca,40,ES,1579952371,81,42.14,-0.41,50.0,6.93
338,Oum Hadjer,0,TD,1579952371,7,13.3,19.7,82.9,10.09
339,Olinda,75,BR,1579952371,74,-8.01,-34.86,82.4,4.7
340,Uvinza,99,TZ,1579952372,83,-5.1,30.39,77.45,2.08
341,Zhaotong,100,CN,1579952372,87,27.32,103.72,29.34,3.78
342,Bilma,34,NE,1579952372,9,18.69,12.92,76.35,14.23
343,Ngunguru,0,NZ,1579952372,93,-35.62,174.5,64.99,4.0
344,Sabha,67,LY,1579952372,16,27.04,14.43,68.47,11.18
345,Moyale,100,KE,1579952373,44,3.52,39.06,83.79,10.83
346,Kununurra,67,AU,1579952373,83,-15.77,128.73,82.4,6.93
347,Hansot,75,IN,1579952373,31,21.58,72.8,87.8,5.82
348,Pinawa,17,CA,1579952373,96,50.15,-95.88,6.96,4.72
349,Kutum,0,SD,1579952373,8,14.2,24.67,70.77,15.26
350,Tucupita,78,VE,1579952373,88,9.06,-62.05,74.68,4.81
351,Liaocheng,86,CN,1579952374,52,36.44,115.96,39.29,4.07
352,Safi,61,MA,1579952374,68,32.3,-9.24,60.85,20.71
353,Saldanha,50,ZA,1579952374,60,-33.01,17.94,73.4,14.99
354,Caconda,80,AO,1579952374,64,-13.73,15.07,77.0,4.18
355,Berlevag,95,NO,1579952374,72,70.86,29.09,24.66,22.37
356,Kidal,83,ML,1579952374,6,18.44,1.41,85.87,11.05
357,Belle Fourche,75,US,1579952374,64,44.67,-103.85,45.0,5.82
358,Abu Dhabi,0,AE,1579952214,53,24.47,54.37,73.4,6.93
359,Praia,75,CV,1579952375,69,14.92,-23.51,73.4,20.8
360,Yangshe,100,CN,1579952375,96,31.89,120.61,48.0,4.0
361,Longyearbyen,0,SJ,1579952375,41,78.22,15.64,3.2,10.29
362,Rio Gallegos,75,AR,1579952375,75,-51.62,-69.22,46.4,14.99
363,Arequipa,75,PE,1579952376,93,-16.4,-71.53,53.6,1.12
364,Atherton,90,GB,1579952376,93,53.52,-2.49,45.0,8.05
365,Shimoda,100,JP,1579952376,67,34.67,138.95,48.0,1.99
366,Kawalu,85,ID,1579952080,94,-7.38,108.21,73.22,1.32
367,Crateus,29,BR,1579952263,62,-5.18,-40.68,83.43,5.23
368,Kungurtug,26,RU,1579952376,73,50.6,97.52,6.8,5.48
369,Talnakh,40,RU,1579952377,84,69.49,88.4,8.6,20.13
370,Sistranda,75,NO,1579952377,93,63.73,8.83,35.6,6.93
371,Pingliang,97,CN,1579952100,90,35.54,106.69,24.55,6.73
372,El Alto,100,PE,1579952378,73,-4.27,-81.21,73.36,7.72
373,Pandan,100,PH,1579952378,86,14.05,124.17,79.34,18.23
374,Alta Floresta,92,BR,1579952378,93,-9.88,-56.09,76.28,4.32
375,Eyl,37,SO,1579952378,82,7.98,49.82,79.2,23.11
376,Aktau,90,KZ,1579952378,65,43.65,51.2,41.0,22.37
377,Jiuquan,21,CN,1579952379,32,39.74,98.52,19.08,5.82
378,Il'inskoye-Khovanskoye,75,RU,1579952379,96,56.97,39.77,32.0,13.42
379,Portmarnock,75,IE,1579952112,81,53.42,-6.14,48.99,11.41
380,Luganville,46,VU,1579952379,92,-15.53,167.17,71.44,0.54
381,Ntungamo,90,UG,1579952379,29,-0.88,29.65,87.21,7.0
382,Butembo,90,CD,1579952379,26,0.15,29.28,85.68,4.45
383,General Pico,0,AR,1579952380,14,-35.66,-63.76,84.76,7.11
384,Kwang Binh,70,VN,1579952174,91,17.48,106.6,71.56,4.32
385,Farafangana,14,MG,1579952380,72,-22.82,47.83,78.24,14.88
386,Eureka,100,US,1579952380,73,40.8,-124.16,57.0,1.99
387,Padang,100,ID,1579952380,99,-0.95,100.35,71.78,1.1
388,Evensk,100,RU,1579952380,88,61.95,159.23,12.78,17.13
389,Vila Franca do Campo,75,PT,1579952380,77,37.72,-25.43,60.8,13.87
390,Gairo,26,IT,1579952381,52,39.85,9.5,61.0,1.99
391,Cherskiy,99,RU,1579952381,94,68.75,161.3,-27.78,1.92
392,Basco,98,PH,1579952381,82,20.45,121.97,77.72,19.19
393,Birin,97,NP,1579952381,94,26.89,88.07,42.24,0.78
394,Faya,40,SA,1579952381,58,18.39,42.45,60.8,12.75
395,Humaita,100,BR,1579952381,80,-7.51,-63.02,79.36,2.15
396,Haines Junction,99,CA,1579952382,98,60.75,-137.51,-13.0,3.74
397,Bilisht,75,AL,1579952382,70,40.63,20.99,42.8,6.26
398,Avarua,100,CK,1579952382,88,-21.21,-159.78,80.6,10.29
399,Inndyr,20,NO,1579952382,73,67.03,14.03,34.0,13.87
400,Yumen,0,CN,1579952382,53,40.28,97.2,23.56,9.98
401,Grand Gaube,75,MU,1579952382,83,-20.01,57.66,82.99,21.92
402,Manggar,24,ID,1579952382,77,-2.88,108.27,83.39,11.36
403,Chipinge,1,ZW,1579952383,46,-20.19,32.62,82.22,9.46
404,Uyemskiy,75,RU,1579952383,85,64.47,40.85,14.0,6.71
405,Smithers,75,CA,1579952383,95,54.78,-127.17,33.8,5.82
406,Gigmoto,92,PH,1579952383,83,13.78,124.39,80.82,17.58
407,Broome,90,US,1579952383,34,42.25,-75.83,37.99,5.82
408,Soyo,40,AO,1579952384,70,-6.13,12.37,89.6,6.93
409,Kamenka,100,RU,1579952384,92,51.32,42.77,35.01,8.99
410,Kerouane,1,GN,1579952384,7,9.27,-9.02,91.78,9.78
411,High River,75,CA,1579952384,44,50.58,-113.87,41.0,10.29
412,Palauig,54,PH,1579952384,80,15.44,119.9,74.37,6.22
413,Kushima,75,JP,1579952384,87,31.46,131.23,53.6,13.87
414,Concepcion,0,CL,1579952384,82,-36.83,-73.05,55.4,5.82
415,Adelaide,0,AU,1579952316,72,-34.93,138.6,70.0,9.17
416,Lixouri,31,GR,1579952385,51,38.2,20.43,59.0,1.99
417,Cravo Norte,100,CO,1579952385,54,6.3,-70.2,78.35,7.96
418,Arrecife,20,ES,1579952385,59,28.96,-13.55,68.0,9.17
419,Kankon,20,IN,1579952385,43,15.02,74.02,89.6,8.05
420,Kenai,58,US,1579952386,60,60.55,-151.26,10.99,7.0
421,Avanuorri,75,NO,1579952386,73,71.0,24.66,23.0,26.4
422,Canico,40,PT,1579952386,55,32.63,-16.85,64.4,3.36
423,Svetlaya,1,RU,1579952386,57,46.54,138.33,9.37,9.4
424,Tshikapa,100,CD,1579952386,50,-6.42,20.8,88.34,4.76
425,Derzhavinsk,100,KZ,1579952387,94,51.1,66.32,4.59,19.73
426,Nikolayevsk-on-Amure,46,RU,1579952387,98,53.14,140.73,-14.93,5.03
427,Langham,40,CA,1579952387,92,52.37,-106.97,28.0,6.93
428,Tsimmerbude,75,RU,1579952387,87,54.67,20.13,42.8,17.9
429,Halifax,5,CA,1579952369,100,44.65,-63.57,21.99,4.7
430,Ina,100,JP,1579952387,70,35.83,137.95,44.01,2.77
431,Penzance,75,GB,1579952387,93,50.12,-5.54,52.0,5.82
432,Hervey Bay,94,AU,1579952388,74,-25.3,152.85,80.6,8.05
433,Hambantota,20,LK,1579952388,66,6.12,81.12,87.8,13.87
434,Qaqortoq,75,GL,1579952388,78,60.72,-46.03,17.6,18.5
435,Pouebo,73,NC,1579952388,89,-20.4,164.57,71.74,4.23
436,Santa Cruz de la Sierra,47,BO,1579952388,69,-17.8,-63.17,73.4,3.36
437,Tura,1,IN,1579952389,65,25.52,90.22,61.54,4.9
438,Oranjemund,3,NA,1579952389,51,-28.55,16.43,75.47,15.75
439,Batesville,39,US,1579952238,84,35.77,-91.64,35.01,6.38
440,Srednekolymsk,74,RU,1579952389,94,67.45,153.68,-31.79,7.16
441,Ratnagiri,68,IN,1579952389,40,16.98,73.3,83.97,6.29
442,Huarmey,100,PE,1579952389,70,-10.07,-78.15,72.39,1.99
443,Iwanai,100,JP,1579952389,76,42.97,140.51,18.09,9.66
444,Te Anau,60,NZ,1579952389,86,-45.42,167.72,54.9,4.09
445,Hofn,100,IS,1579952390,76,64.25,-15.21,37.9,21.09
446,Mogadishu,75,SO,1579952390,66,2.04,45.34,86.0,20.8
447,Athabasca,10,CA,1579952390,94,54.72,-113.29,19.94,4.63
448,Caravelas,100,BR,1579952390,82,-17.71,-39.25,80.04,21.21
449,Gejiu,56,CN,1579952390,96,23.31,103.16,37.81,7.07
450,Jinchang,90,CN,1579952390,56,38.5,102.17,22.23,2.37
451,Sorland,40,NO,1579952391,64,67.67,12.69,33.8,13.87
452,Aksaray,0,TR,1579952391,37,38.37,34.03,37.4,1.12
453,Bambanglipuro,77,ID,1579952391,82,-7.95,110.28,78.75,5.5
454,Grindavik,90,IS,1579952391,86,63.84,-22.43,37.4,28.86
455,Narsaq,75,GL,1579952391,78,60.92,-46.05,17.6,2.86
456,Sovetskiy,10,RU,1579952391,95,61.36,63.58,-1.25,3.83
457,Guarapari,90,BR,1579952392,94,-20.67,-40.5,77.0,13.87
458,Gold Coast,40,AU,1579952282,83,-28.0,153.43,81.0,8.05
459,Clearlake,90,US,1579952392,100,38.96,-122.63,55.99,1.36
460,Ternate,59,ID,1579952392,88,0.8,127.4,76.3,2.26
461,Jatibonico,0,CU,1579952392,90,21.94,-79.17,62.53,2.1
462,Malakal,20,SS,1579952392,11,9.53,31.66,91.42,11.41
463,Boa Vista,42,BR,1579952393,78,2.82,-60.67,75.2,4.7
464,Tairua,0,NZ,1579952393,89,-37.02,175.85,64.99,10.4
465,Mayumba,25,GA,1579952393,75,-3.43,10.66,82.29,4.25
466,Charters Towers,99,AU,1579952393,79,-20.1,146.27,78.62,12.53
467,La Palma,90,US,1579952393,93,33.85,-118.05,55.4,1.3
468,Sandakan,20,MY,1579952393,79,5.84,118.12,84.2,5.82
469,Port Augusta,0,AU,1579952394,64,-32.5,137.77,75.0,17.22
470,Namwala,0,ZM,1579952394,46,-15.75,26.44,83.91,8.21
471,Mporokoso,75,ZM,1579952394,66,-9.37,30.12,77.22,4.99
472,Praia da Vitoria,20,PT,1579952394,87,38.73,-27.07,59.0,24.0
473,Qiongshan,75,CN,1579952394,83,20.01,110.35,73.4,15.66
474,Houma,90,US,1579952394,100,29.6,-90.72,44.01,5.21
475,The Pas,90,CA,1579952395,85,53.83,-101.25,12.2,9.17
476,Juneau,90,US,1579952395,89,58.3,-134.42,34.0,8.05
477,Micheweni,100,TZ,1579952395,79,-4.97,39.83,82.0,10.94
478,Yarim,50,YE,1579952395,48,14.3,44.38,64.44,12.91
479,Kudahuvadhoo,100,MV,1579952395,79,2.67,72.89,82.87,15.73
480,Lorengau,20,PG,1579952396,70,-2.02,147.27,84.38,7.05
481,Ponta Delgada,75,PT,1579952396,77,37.73,-25.67,60.8,13.87
482,Praxedis Guerrero,91,MX,1579952396,46,31.37,-106.02,47.61,3.6
483,Bubaque,83,GW,1579952396,66,11.28,-15.83,78.35,7.76
484,Lumberton,40,US,1579952138,87,34.62,-79.01,53.6,7.9
485,Half Moon Bay,90,US,1579952396,93,37.46,-122.43,55.4,1.5
486,Taga,64,RO,1579952396,74,46.95,24.05,37.0,5.82
487,Nagato,75,JP,1579952336,81,34.38,131.2,48.2,5.82
488,Segou,56,ML,1579952397,5,13.43,-6.22,93.85,14.47
489,Grevenbroich,90,DE,1579952397,61,51.09,6.58,37.99,5.82
490,Tomatlan,93,MX,1579952397,98,19.93,-105.25,63.97,1.1
491,Port Blair,95,IN,1579952223,72,11.67,92.75,79.43,16.62
492,Naze,75,JP,1579952397,88,28.37,129.48,71.6,9.17
493,Tekkali,95,IN,1579952398,78,18.62,84.23,74.64,8.66
494,Yuci,0,CN,1579952398,83,37.68,112.73,32.0,2.33
495,Atar,75,MR,1579952398,18,20.52,-13.05,83.16,13.85
496,Mwene-Ditu,18,CD,1579952398,61,-7.0,23.45,82.92,4.74
497,Port Keats,99,AU,1579952398,84,-14.25,129.55,84.16,9.95
498,Gaogou,100,CN,1579952398,66,34.02,119.19,39.72,9.37
499,Ugoofaaru,100,MV,1579952399,72,5.67,73.0,82.42,7.45
500,Durango,100,MX,1579952399,63,24.83,-104.83,48.13,1.72
501,Jinxiang,100,CN,1579952399,91,22.86,115.7,66.99,1.01
502,Katobu,61,ID,1579952399,90,-4.94,122.53,77.9,1.39
503,Carnot,76,CF,1579952400,9,4.94,15.87,93.74,8.08
504,Nova Olinda do Norte,100,BR,1579952400,83,-3.89,-59.09,78.89,2.15
505,Chaiyaphum,100,TH,1579952400,48,15.75,102.0,82.74,6.2
506,Aras,75,ES,1579952400,100,42.56,-2.36,46.99,8.05
507,Xining,90,CN,1579952400,53,36.62,101.77,20.05,3.76
508,Pahrump,80,US,1579952400,71,36.21,-115.98,46.0,0.58
509,Chengzhong,100,CN,1579952401,82,30.95,113.55,41.0,10.78
510,Ilulissat,58,GL,1579952401,75,69.22,-51.1,-0.13,4.7
511,San Luis,0,AR,1579952385,27,-33.3,-66.34,86.72,4.63
512,Chiredzi,84,ZW,1579952401,31,-21.05,31.67,93.79,6.46
513,Kvarkeno,100,RU,1579952401,90,52.08,59.73,17.26,21.77
514,Plymouth,90,US,1579952129,96,41.83,-70.83,43.0,3.36
515,Kinablangan,51,PH,1579952402,92,7.69,126.55,72.57,2.91
516,Kulu,0,TR,1579952402,37,39.1,33.08,37.58,6.69
517,Moron,0,AR,1579952321,94,-34.65,-58.62,87.01,3.36
518,Orange,1,US,1579952392,80,33.7,-117.77,55.4,0.96
519,Am Timan,0,TD,1579952402,6,11.03,20.28,87.6,8.03
520,Madimba,100,TZ,1579952402,87,-10.4,40.33,78.84,12.3
521,Zhengjiatun,0,CN,1579952403,89,43.51,123.51,2.91,3.4
522,Talcahuano,0,CL,1579952403,63,-36.72,-73.12,59.02,3.15
523,Nicolas Bravo,46,MX,1579952403,99,18.45,-88.92,64.49,1.14
524,San Quintin,0,MX,1579952403,84,30.48,-115.95,56.71,5.32
525,Parrita,2,CR,1579952403,83,9.52,-84.32,68.0,3.91
526,Znamenskoye,94,RU,1579952404,91,57.13,73.83,9.1,8.61
527,Tonj,15,SS,1579952404,11,7.27,28.68,92.73,8.08
528,Richards Bay,99,ZA,1579952404,76,-28.78,32.04,81.07,31.29
529,Kisangani,100,CD,1579952404,17,0.52,25.2,96.94,3.27
530,Dickinson,90,US,1579952404,100,29.46,-95.05,55.99,7.63
531,Lodja,100,CD,1579952404,23,-3.48,23.43,98.1,2.62
532,Sittwe,12,MM,1579952131,58,20.15,92.9,70.7,18.81
533,Padilla,75,CO,1579952405,88,3.22,-76.31,71.6,2.24
534,Saint-Ambroise,69,CA,1579952405,88,48.55,-71.33,10.0,0.94
535,Pathein,99,MM,1579952405,52,16.78,94.73,72.77,10.78
536,Makakilo City,75,US,1579952405,93,21.35,-158.09,69.01,3.36
537,Namatanai,66,PG,1579952406,75,-3.67,152.43,83.66,9.71
538,Gamba,55,GA,1579952406,61,-2.65,10.0,87.62,6.89
539,Acapulco de Juarez,0,MX,1579952406,84,16.86,-99.89,68.34,4.14
540,Barra de Tecoanapa,11,MX,1579952406,90,16.52,-98.75,71.73,2.53
541,Sibolga,49,ID,1579952406,97,1.74,98.78,74.8,1.12
542,Borger,90,NL,1579952140,93,52.92,6.79,39.0,10.29
543,Oskarshamn,30,SE,1579952407,81,57.26,16.45,44.01,11.41
544,Bandarbeyla,80,SO,1579952407,86,9.49,50.81,78.4,16.4
545,Havelock,90,US,1579952407,93,34.88,-76.9,62.6,10.29
546,Riyadh,0,SA,1579952393,29,24.69,46.72,60.8,14.99
547,Victor Harbor,0,AU,1579952407,72,-35.57,138.62,69.01,9.17
548,Mitsamiouli,88,KM,1579952137,83,-11.38,43.28,80.67,19.15
549,Istra,40,RU,1579952408,100,55.92,36.86,37.99,15.66
550,Ndioum,93,SN,1579952408,12,16.51,-14.65,95.09,13.53
551,Mezen,100,RU,1579952408,94,65.85,44.24,0.93,6.26
552,Hawera,82,NZ,1579952408,95,-39.59,174.28,61.0,2.71
553,Beoumi,0,CI,1579952408,9,7.67,-5.58,95.72,8.25
554,Akdepe,75,TM,1579952408,29,42.06,59.38,32.0,11.41
555,Anito,45,PH,1579952409,83,12.45,125.29,81.21,17.69
556,Hamilton,90,US,1579952395,86,39.18,-84.53,37.99,6.93
557,Sigli,50,ID,1579952409,64,5.38,95.96,82.72,7.81
558,Karratha,27,AU,1579952409,81,-20.74,116.85,84.0,15.77
559,Road Town,33,VG,1579952409,88,18.42,-64.62,75.0,8.01
560,Sioux Lookout,100,CA,1579952409,97,50.1,-91.92,20.57,1.52
561,Coahuayana Viejo,55,MX,1579952410,83,18.73,-103.68,67.26,4.23
562,Sunrise,90,US,1579952410,93,26.16,-80.29,66.2,2.35
563,Sabalgarh,0,IN,1579952410,30,26.25,77.4,65.44,2.13
564,Nkowakowa,49,ZA,1579952410,64,-23.89,30.29,80.01,13.87
565,Antalaha,56,MG,1579952410,81,-14.9,50.28,81.19,23.8
566,Madaripur,0,BD,1579952411,37,23.18,90.21,67.66,4.72
567,Canutama,100,BR,1579952411,96,-6.53,-64.38,74.86,0.51
568,Nuuk,20,GL,1579952411,72,64.18,-51.72,12.2,11.41
569,Khovd,94,MN,1579952411,61,48.01,91.64,8.37,1.36
570,Sarangani,9,PH,1579952411,77,5.4,125.46,82.78,12.37
571,Okhotsk,0,RU,1579952412,69,59.38,143.3,-22.56,13.53
572,Mangrol,1,IN,1579952412,59,21.12,70.12,75.61,14.94
573,Fort Dix,90,US,1579952412,87,40.03,-74.62,46.99,20.8
574,Swan Hill,0,AU,1579952294,46,-35.34,143.55,73.0,5.95
575,Khani,40,GE,1579952412,60,41.96,42.96,41.0,9.17
