,City Name,Cloudiness,Country,Date,Humidity,Latitude,Longitude,Max Temperature,Wind Speed
0,Sao Mateus do Sul,0,BR,1580044480,46,-25.87,-50.38,75.33,0.94
1,Jamestown,99,US,1580044480,95,42.1,-79.24,33.01,10.0
2,Albany,53,US,1580044481,90,42.6,-73.97,35.01,4.38
3,San Policarpo,7,PH,1580044481,88,12.18,125.51,79.57,8.55
4,Punta Arenas,92,CL,1580044481,58,-53.15,-70.92,53.01,23.0
5,Banyumas,85,ID,1580044453,83,-7.51,109.29,79.97,2.24
6,Padang,100,ID,1580044481,97,-0.95,100.35,71.1,0.58
7,Cidreira,7,BR,1580044481,63,-30.18,-50.21,75.87,8.03
8,Ratnagiri,1,IN,1580044481,51,16.98,73.3,82.62,7.58
9,Bluff,88,NZ,1580044482,86,-46.6,168.33,57.0,1.01
10,Sur,47,OM,1580044482,65,22.57,59.53,70.65,15.21
11,Rikitea,50,PF,1580044482,76,-23.12,-134.97,78.98,11.77
12,Padilla,75,CO,1580044482,94,3.22,-76.31,69.8,2.24
13,Saint-Philippe,90,RE,1580044209,69,-21.36,55.77,80.6,18.34
14,Pevek,100,RU,1580044243,97,69.7,170.31,-8.25,1.25
15,Cape Town,40,ZA,1580044324,40,-33.93,18.42,73.99,18.34
16,Weihai,94,CN,1580044483,69,37.5,122.11,38.23,14.58
17,Dikson,94,RU,1580044483,97,73.51,80.55,-6.16,2.86
18,Trincomalee,98,LK,1580044483,67,8.57,81.23,78.26,4.43
19,Turukhansk,100,RU,1580044483,96,65.82,87.98,-0.99,7.27
20,Sao Luiz Gonzaga,0,BR,1580044483,55,-28.41,-54.96,76.12,5.66
21,Kapaa,32,US,1580044484,59,22.08,-159.32,72.0,6.55
22,Jalu,50,LY,1580044484,25,29.03,21.55,64.71,9.75
23,Kundiawa,67,PG,1580044484,98,-6.02,144.97,55.54,0.38
24,Khalkhal,6,IR,1580044484,78,37.62,48.53,21.85,4.16
25,Bambous Virieux,75,MU,1580044484,83,-20.34,57.76,78.8,13.87
26,Mount Isa,93,AU,1580044428,75,-20.73,139.5,79.83,11.79
27,Tiarei,85,PF,1580044485,74,-17.53,-149.33,78.01,3.0
28,Dalby,9,AU,1580044485,76,-27.18,151.27,75.0,1.99
29,Saskylakh,98,RU,1580044485,94,71.92,114.08,-19.16,12.12
30,Sibi,0,PK,1580044485,32,29.54,67.88,72.54,7.83
31,Palas,68,ID,1580044485,90,-5.65,105.68,78.17,3.8
32,Manzanillo,0,CU,1580044485,91,20.34,-77.12,66.07,3.8
33,Talnakh,99,RU,1580044486,95,69.49,88.4,2.61,6.35
34,Avarua,100,CK,1580044190,85,-21.21,-159.78,80.1,9.35
35,Tongliao,0,CN,1580044486,76,43.61,122.27,12.65,8.23
36,Khatanga,99,RU,1580044486,100,71.97,102.5,-21.87,2.57
37,Yellowknife,100,CA,1580044465,92,62.46,-114.35,12.0,3.0
38,Lebu,71,CL,1580044346,81,-37.62,-73.65,63.93,6.82
39,Iqaluit,74,CA,1580044487,59,63.75,-68.51,-31.0,11.99
40,Vallenar,38,CL,1580044487,68,-28.57,-70.76,68.9,2.51
41,Walvis Bay,7,NA,1580044487,45,-22.96,14.51,82.4,13.87
42,Ayan,0,RU,1580044487,66,56.45,138.17,-17.12,13.6
43,Batemans Bay,31,AU,1580044487,88,-35.72,150.18,68.0,1.01
44,Necochea,51,AR,1580044250,33,-38.55,-58.74,75.99,7.0
45,Mataura,100,NZ,1580044487,86,-46.19,168.86,57.0,1.01
46,Torbay,7,CA,1580044438,78,47.67,-52.73,26.01,7.47
47,Souillac,75,MU,1580044488,83,-20.52,57.52,78.8,13.87
48,Nagorsk,96,RU,1580044488,93,59.32,50.81,8.94,7.09
49,Bilibino,100,RU,1580044488,88,68.05,166.44,-0.87,2.57
50,Ushuaia,100,AR,1580044488,96,-54.8,-68.3,40.53,2.98
51,Fortuna,100,US,1580044450,98,40.6,-124.16,53.01,3.36
52,Muromtsevo,100,RU,1580044489,92,56.37,75.24,15.46,10.85
53,Zapolyarnyy,78,RU,1580044489,79,69.42,30.81,16.2,16.46
54,Tuktoyaktuk,100,CA,1580044489,94,69.45,-133.04,-16.38,12.73
55,Laguna,90,US,1580044489,93,38.42,-121.42,55.99,4.7
56,Marsh Harbour,14,BS,1580044489,58,26.54,-77.06,70.07,10.71
57,Lokosovo,99,RU,1580044489,98,61.13,74.82,-4.34,5.75
58,Busselton,41,AU,1580044489,35,-33.65,115.33,75.99,17.11
59,Qaanaaq,3,GL,1580044490,52,77.48,-69.36,-11.4,5.48
60,Namatanai,71,PG,1580044490,77,-3.67,152.43,82.9,2.35
61,Mahebourg,75,MU,1580044490,83,-20.41,57.7,78.8,13.87
62,Ballina,2,AU,1580044490,95,-28.87,153.57,73.99,11.5
63,Meulaboh,96,ID,1580044490,73,4.14,96.13,84.96,5.77
64,Posse,100,BR,1580044490,98,-14.09,-46.37,69.15,5.12
65,Severo-Kuril'sk,100,RU,1580044490,92,50.68,156.12,18.1,31.56
66,Kantunilkin,18,MX,1580044491,100,21.09,-87.45,64.0,4.0
67,Mahibadhoo,100,MV,1580044491,69,3.78,72.97,82.04,5.91
68,Atuona,2,PF,1580044447,78,-9.8,-139.03,80.17,13.8
69,Kodiak,100,US,1580044491,86,57.79,-152.41,17.64,23.44
70,Egvekinot,60,RU,1580044491,71,66.32,-179.17,-6.16,3.22
71,Puerto Ayora,93,EC,1580044491,22,-0.74,-90.35,75.0,1.01
72,Chui,20,UY,1580044491,63,-33.7,-53.46,74.12,6.55
73,Vila Velha,100,BR,1580044492,77,-20.33,-40.29,78.01,0.94
74,Evanston,90,US,1580044492,93,42.04,-87.69,33.01,6.93
75,Mount Gambier,100,AU,1580044492,81,-37.83,140.77,56.08,0.2
76,Faanui,18,PF,1580044492,75,-16.48,-151.75,82.17,8.93
77,Hermanus,28,ZA,1580044492,64,-34.42,19.23,73.99,7.0
78,Muros,90,ES,1580044492,71,42.78,-9.06,57.99,15.01
79,Bredasdorp,24,ZA,1580044493,49,-34.53,20.04,69.01,20.8
80,La Palma,90,US,1580044493,87,33.85,-118.05,57.2,2.86
81,Upernavik,96,GL,1580044493,97,72.79,-56.15,-16.91,4.88
82,Sao Joao da Barra,96,BR,1580044493,82,-21.64,-41.05,74.79,2.8
83,Guerrero Negro,0,MX,1580044493,89,27.98,-114.06,58.37,5.68
84,Dingle,72,PH,1580044493,89,11.0,122.67,75.99,3.49
85,Ha Giang,34,VN,1580044494,82,22.83,104.98,50.81,1.34
86,Khorramshahr,0,IR,1580044494,27,30.44,48.17,63.3,23.49
87,Emerald,92,AU,1580044494,91,-23.53,148.17,73.0,1.99
88,Dickson,90,US,1580044494,91,36.08,-87.39,35.01,4.45
89,Arraial do Cabo,0,BR,1580044495,81,-22.97,-42.03,73.29,2.33
90,Srednekolymsk,100,RU,1580044495,95,67.45,153.68,-22.95,6.42
91,Abu Dhabi,0,AE,1580044282,68,24.47,54.37,61.59,26.46
92,Vaini,12,TO,1580044495,85,-21.2,-175.2,79.39,12.35
93,Kahului,0,US,1580044495,73,20.89,-156.47,71.01,5.01
94,Santa Maria del Rio,96,MX,1580044495,91,21.8,-100.75,51.22,3.11
95,Novoagansk,97,RU,1580044496,96,61.94,76.66,0.25,8.68
96,Hilo,16,US,1580044496,92,19.73,-155.09,64.0,3.0
97,Arrondissement de Cognac,18,FR,1580044496,76,45.5,-0.25,55.99,1.99
98,Inhambane,26,MZ,1580044496,63,-23.86,35.38,83.93,12.1
99,New Norfolk,73,AU,1580044497,58,-42.78,147.06,60.01,1.01
100,Zhezkazgan,96,KZ,1580044497,89,47.8,67.71,20.32,28.5
101,Ponnampet,99,IN,1580044388,41,12.15,75.93,79.45,1.97
102,Flinders,17,AU,1580044497,22,-34.58,150.86,78.01,3.0
103,Naze,100,JP,1580044497,92,28.37,129.48,69.17,21.68
104,Deesa,0,IN,1580044497,27,24.25,72.17,81.57,7.7
105,Kismayo,2,SO,1580044497,75,-0.36,42.55,83.25,13.29
106,Longyearbyen,0,SJ,1580044498,58,78.22,15.64,-9.92,1.7
107,Viedma,29,AR,1580044498,39,-40.81,-63.0,71.94,25.19
108,Tiksi,0,RU,1580044498,69,71.69,128.87,-30.33,3.89
109,Hobyo,96,SO,1580044498,57,5.35,48.53,85.66,21.65
110,Batagay-Alyta,0,RU,1580044498,47,67.8,130.41,-32.46,4.92
111,Wanning,91,CN,1580044498,90,18.8,110.4,59.07,8.86
112,Port Elizabeth,90,ZA,1580044215,49,-33.92,25.57,73.4,35.57
113,Barrow,40,US,1580044499,75,71.29,-156.79,-20.2,10.29
114,Komatipoort,0,ZA,1580044499,43,-25.43,31.95,99.0,1.99
115,Thompson,76,CA,1580044418,97,55.74,-97.86,-4.97,4.81
116,Cherskiy,100,RU,1580044499,94,68.75,161.3,-17.34,3.31
117,Charters Towers,99,AU,1580044499,83,-20.1,146.27,76.98,10.94
118,Port Alfred,99,ZA,1580044500,78,-33.59,26.89,66.99,11.01
119,Tasiilaq,75,GL,1580044500,70,65.61,-37.64,32.0,18.34
120,Sabang,0,ID,1580044500,68,5.89,95.32,82.47,11.16
121,Castro,0,BR,1580044500,59,-24.79,-50.01,75.97,1.21
122,Hirara,100,JP,1580044472,87,24.8,125.28,74.55,27.36
123,Coracao de Jesus,100,BR,1580044500,98,-16.69,-44.37,68.0,7.09
124,Shelburne,93,CA,1580044501,47,44.08,-80.2,35.01,1.99
125,Santa Maria,20,BR,1580044501,58,-29.68,-53.81,84.2,1.12
126,Baytown,90,US,1580044501,93,29.74,-94.98,64.0,3.36
127,Sao Borja,0,BR,1580044501,52,-28.66,-56.0,79.07,5.08
128,Cockburn Town,1,TC,1580044501,69,21.46,-71.14,75.74,4.25
129,Prince Rupert,100,CA,1580044501,74,54.32,-130.32,41.63,12.37
130,Mackay,100,AU,1580044501,87,-21.15,149.2,78.01,2.95
131,Tessalit,77,ML,1580044502,5,20.2,1.01,87.87,6.13
132,Sitka,100,US,1580044502,89,57.05,-135.33,39.83,11.74
133,Orissaare,100,EE,1580044502,81,58.56,23.08,42.01,8.99
134,Daru,13,PG,1580044502,88,-9.08,143.21,78.08,1.54
135,Hammerfest,100,NO,1580044502,92,70.66,23.68,12.79,2.8
136,Lagoa,100,PT,1580044502,67,39.05,-27.98,57.29,1.23
137,Mitsamiouli,100,KM,1580044503,70,-11.38,43.28,80.15,6.89
138,Kavieng,46,PG,1580044469,76,-2.57,150.8,84.47,10.2
139,Bethel,20,US,1580044503,92,41.37,-73.41,37.99,5.26
140,Tema,39,GH,1580044503,61,5.67,-0.02,80.51,4.21
141,Ponta do Sol,0,PT,1580044503,57,32.67,-17.1,64.0,5.01
142,Provideniya,0,RU,1580044503,82,64.38,-173.3,-6.7,1.88
143,Buraidah,0,SA,1580044504,34,26.33,43.98,55.78,7.72
144,Klobuck,100,PL,1580044504,90,50.9,18.94,34.0,1.01
145,Ust-Kuyga,0,RU,1580044504,89,70.02,135.6,-41.91,7.9
146,Butaritari,66,KI,1580044504,74,3.07,172.79,85.24,12.82
147,Vao,71,NC,1580044504,83,-22.67,167.48,77.81,17.38
148,Aklavik,100,CA,1580044505,96,68.22,-135.01,-19.17,3.44
149,Vila Franca do Campo,99,PT,1580044505,76,37.72,-25.43,61.29,6.13
150,Ribas do Rio Pardo,0,BR,1580044505,72,-20.44,-53.76,78.48,4.74
151,Mehamn,100,NO,1580044505,76,71.04,27.85,18.07,16.71
152,Qeshm,0,IR,1580044505,55,26.96,56.27,65.57,22.79
153,Phan Thiet,22,VN,1580044505,90,10.93,108.1,70.59,3.89
154,Morondava,100,MG,1580044505,66,-20.28,44.28,86.67,7.58
155,Geraldton,78,AU,1580044506,78,-28.77,114.6,75.07,22.57
156,Hobart,83,AU,1580044502,58,-42.88,147.33,60.01,4.0
157,Atar,100,MR,1580044506,17,20.52,-13.05,81.59,11.12
158,Yulara,0,AU,1580044506,13,-25.24,130.99,86.72,10.76
159,Mar del Plata,64,AR,1580044371,38,-38.0,-57.56,80.01,1.99
160,Bereda,52,ES,1580044501,72,43.27,-7.54,57.99,13.0
161,Codrington,100,AU,1580044507,74,-38.27,141.97,60.67,6.8
162,Dessie,46,ET,1580044507,60,11.13,39.63,59.85,3.18
163,Kumul,41,CN,1580044507,69,42.8,93.45,13.98,1.92
164,Kavaratti,83,IN,1580044507,64,10.57,72.64,81.61,7.16
165,East London,40,ZA,1580044314,68,-33.02,27.91,69.8,31.09
166,Turbat,54,PK,1580044507,48,26.0,63.04,70.5,12.3
167,Altay,100,CN,1580044508,97,47.87,88.12,15.33,1.92
168,Luena,75,AO,1580044508,88,-11.78,19.92,71.6,8.05
169,Klaksvik,83,FO,1580044508,65,62.23,-6.59,43.2,34.81
170,George Town,60,MY,1580044508,70,5.41,100.34,84.0,1.99
171,Southbridge,40,US,1580044508,89,42.08,-72.03,39.99,5.82
172,Cabo San Lucas,0,MX,1580044290,90,22.89,-109.91,61.0,1.01
173,Boundiali,59,CI,1580044508,5,9.52,-6.49,94.78,8.25
174,Berlevag,100,NO,1580044509,69,70.86,29.09,22.68,22.21
175,Nome,0,US,1580044342,69,64.5,-165.41,-8.28,7.67
176,Arlit,78,NE,1580044509,4,18.74,7.39,86.99,11.45
177,Hong Kong,64,HK,1580044310,84,22.29,114.16,57.99,1.99
178,Eureka,100,US,1580044417,96,40.8,-124.16,53.01,1.01
179,Amapa,92,BR,1580044509,91,1.0,-52.0,76.75,3.8
180,Airai,88,TL,1580044510,94,-8.93,125.41,70.47,0.4
181,Priargunsk,34,RU,1580044510,99,50.37,119.1,-8.99,1.3
182,Coyhaique,82,CL,1580044368,94,-45.58,-72.07,42.12,5.5
183,Vathy,100,GR,1580044510,64,38.4,23.6,60.01,1.99
184,Bathsheba,98,BB,1580044510,76,13.22,-59.52,77.86,13.02
185,Orange Cove,90,US,1580044510,87,36.62,-119.31,52.0,3.02
186,Stryn,100,NO,1580044511,64,61.9,6.72,46.0,7.0
187,Omboue,52,GA,1580044511,75,-1.57,9.26,84.38,4.65
188,Tairua,0,NZ,1580044511,88,-37.02,175.85,71.01,1.01
189,Erzurum,68,TR,1580044212,84,40.0,41.5,15.57,6.4
190,Akhtanizovskaya,100,RU,1580044511,57,45.32,37.1,48.0,4.0
191,Isla Mujeres,9,MX,1580044511,100,21.23,-86.73,64.0,4.0
192,Salekhard,82,RU,1580044511,99,66.53,66.6,-8.57,2.51
193,Galveston,90,US,1580044512,93,29.37,-94.97,64.0,3.36
194,San Patricio,75,MX,1580044512,77,19.22,-104.7,74.48,5.86
195,Santa Cruz de la Palma,20,ES,1580044512,60,28.68,-17.76,69.8,6.93
196,Diffa,39,NE,1580044512,14,13.32,12.61,81.07,18.59
197,Quatre Cocos,75,MU,1580044512,83,-20.21,57.76,78.8,13.87
198,La Ronge,19,CA,1580044513,97,55.1,-105.28,10.53,1.83
199,Adrar,35,MR,1580044513,14,20.5,-10.07,82.49,13.06
200,Sorong,100,ID,1580044513,93,-0.88,131.25,76.48,2.55
201,Ribeira Grande,100,PT,1580044263,77,38.52,-28.7,55.98,7.4
202,Wajir,100,KE,1580044513,42,1.75,40.06,90.75,0.96
203,Mossamedes,100,AO,1580044513,69,-15.2,12.15,82.4,12.75
204,Pedro II,96,BR,1580044514,69,-4.42,-41.46,81.82,8.52
205,Nemuro,30,JP,1580044514,57,43.32,145.57,23.4,16.67
206,College,28,US,1580044256,58,64.86,-147.8,-13.0,3.98
207,Kruisfontein,85,ZA,1580044514,59,-34.0,24.73,65.91,37.02
208,Haines Junction,97,CA,1580044514,99,60.75,-137.51,-17.84,4.59
209,Verkhnyaya Inta,84,RU,1580044514,96,65.98,60.31,-5.35,5.79
210,Esperance,23,AU,1580044515,90,-33.87,121.9,67.5,13.62
211,Nikolskoye,100,RU,1580044515,95,59.7,30.79,37.0,4.0
212,North Platte,52,US,1580044515,91,41.12,-100.77,30.0,9.37
213,Anadyr,100,RU,1580044515,78,64.75,177.48,12.0,15.01
214,Bengkulu,100,ID,1580044515,83,-3.8,102.27,78.13,1.23
215,Waddan,67,LY,1580044515,15,29.16,16.14,70.25,6.02
216,Merauke,23,ID,1580044384,80,-8.47,140.33,82.17,5.17
217,Nanortalik,2,GL,1580044516,68,60.14,-45.24,21.74,30.65
218,Havre-Saint-Pierre,100,CA,1580044516,80,50.23,-63.6,26.44,2.77
219,Dispur,14,IN,1580044516,73,26.14,91.79,59.07,2.64
220,Ballarat,96,AU,1580044516,93,-37.57,143.85,62.01,1.99
221,Seddon,100,AU,1580044517,75,-37.81,144.89,64.99,3.0
222,Tacna,82,PE,1580044283,86,-18.01,-70.25,60.15,2.62
223,Bima,35,ID,1580044517,93,-8.47,118.72,75.43,1.23
224,Tallahassee,1,US,1580044459,93,30.44,-84.28,44.01,4.7
225,Langholm,93,GB,1580044517,65,55.15,-3.0,46.99,3.0
226,Mareeba,100,AU,1580044517,96,-17.0,145.43,79.0,1.99
227,Rudbar,9,AF,1580044518,63,30.15,62.6,56.44,13.13
228,Chimbote,98,PE,1580044518,82,-9.09,-78.58,71.87,2.89
229,Demba,100,CD,1580044518,39,-5.51,22.27,92.14,5.28
230,Pontianak,91,ID,1580044518,95,-0.03,109.33,76.93,2.46
231,Nguru,7,NG,1580044518,11,12.88,10.45,82.22,16.15
232,Oyama,83,JP,1580044518,66,36.3,139.8,46.0,3.51
233,Lata,10,PT,1580044518,81,40.16,-8.33,60.01,3.0
234,Aberdeen,100,GB,1580044433,79,57.14,-2.1,45.0,11.01
235,Praia,57,CV,1580044519,67,14.92,-23.51,73.54,12.91
236,Chulman,90,RU,1580044519,96,56.85,124.91,-5.06,1.72
237,Saint George,1,US,1580044315,92,37.1,-113.58,37.99,2.66
238,Webuye,100,KE,1580044519,46,0.61,34.77,76.69,10.8
239,Flin Flon,90,CA,1580044519,92,54.77,-101.86,17.6,4.7
240,Sulphur,90,US,1580044519,100,30.24,-93.38,57.2,10.29
241,Carnarvon,0,AU,1580044263,73,-24.87,113.63,78.26,24.79
242,Ozinki,99,RU,1580044520,86,51.18,49.68,27.23,24.56
243,Lompoc,90,US,1580044520,93,34.64,-120.46,57.0,13.0
244,Aleksandrovskoye,100,RU,1580044520,80,44.71,43.0,39.0,13.0
245,Yarmouth,40,US,1580044521,93,41.71,-70.23,43.0,8.05
246,Aguas Vermelhas,100,BR,1580044521,97,-15.75,-41.46,67.17,6.29
247,Babaeski,13,TR,1580044521,60,41.43,27.09,59.0,4.0
248,Port Hardy,100,CA,1580044521,99,50.7,-127.42,38.46,1.12
249,Yuxia,99,CN,1580044521,81,34.06,108.63,39.99,3.0
250,Ayia Anna,0,CY,1580044522,64,34.94,33.48,62.01,11.01
251,Chokurdakh,100,RU,1580044522,97,70.63,147.92,-19.17,5.57
252,Natal'insk,100,RU,1580044522,95,56.47,57.87,19.63,5.93
253,Along,0,IN,1580044522,72,28.17,94.77,49.96,1.57
254,Gushi,77,CN,1580044522,65,34.64,109.58,37.42,7.87
255,Lambari,0,BR,1580044523,80,-21.98,-45.35,71.74,1.21
256,Fort Frances,100,CA,1580044523,89,48.6,-93.4,21.0,1.99
257,Hithadhoo,100,MV,1580044523,82,-0.6,73.08,81.95,16.26
258,Minab,9,IR,1580044523,59,27.15,57.08,64.2,24.85
259,Plover,90,US,1580044523,100,44.46,-89.54,30.99,6.93
260,Hienghene,100,NC,1580044523,82,-20.68,164.93,79.11,22.75
261,Teguldet,100,RU,1580044524,86,57.31,88.17,13.35,11.36
262,Tuatapere,84,NZ,1580044343,86,-46.13,167.68,57.0,1.01
263,Usinsk,96,RU,1580044524,98,65.99,57.53,-8.52,3.62
264,Najran,28,SA,1580044525,30,17.49,44.13,61.74,7.92
265,Severo-Yeniseyskiy,91,RU,1580044525,93,60.37,93.04,8.47,6.98
266,Yumen,0,CN,1580044525,46,40.28,97.2,23.18,6.69
267,Poum,95,NC,1580044525,79,-20.23,164.02,80.42,20.33
268,Saldanha,2,ZA,1580044230,43,-33.01,17.94,71.6,17.22
269,Berea,98,US,1580044525,92,41.37,-81.85,34.0,5.99
270,Baiyin,0,CN,1580044526,52,36.56,104.21,24.01,2.89
271,Faya,0,SA,1580044526,24,18.39,42.45,61.77,2.71
272,Grand Gaube,75,MU,1580044526,83,-20.01,57.66,78.8,13.87
273,Clyde River,90,CA,1580044526,74,70.47,-68.59,-23.8,10.29
274,Mabaruma,90,GY,1580044527,87,8.2,-59.78,75.18,1.86
275,Roald,100,NO,1580044527,61,62.58,6.13,46.99,14.0
276,Parnarama,60,BR,1580044527,84,-5.68,-43.09,83.59,1.79
277,Powell River,100,CA,1580044527,96,49.85,-124.54,46.99,1.99
278,Miles City,0,US,1580044527,70,46.41,-105.84,28.0,5.01
279,Zhigansk,57,RU,1580044527,82,66.77,123.37,-30.19,7.27
280,Ilo,9,PE,1580044527,89,-17.64,-71.34,73.26,5.46
281,Mawlaik,0,MM,1580044528,49,23.63,94.42,61.36,1.25
282,Dakar,82,SN,1580044528,17,14.69,-17.44,91.4,28.86
283,Labuhan,40,ID,1580044528,83,-6.88,112.21,78.33,3.96
284,Thinadhoo,100,MV,1580044428,80,0.53,72.93,81.9,16.69
285,Banda Aceh,3,ID,1580044507,72,5.56,95.32,76.84,4.7
286,Barranca,58,PE,1580044529,90,-10.75,-77.77,71.02,12.01
287,Taipei,100,TW,1580044399,96,25.05,121.53,66.0,1.01
288,Constantine,48,DZ,1580044529,51,36.37,6.61,58.33,4.34
289,Craig,90,US,1580044249,92,40.52,-107.55,24.01,4.7
290,Amalapuram,4,IN,1580044530,69,16.58,82.02,77.54,6.51
291,Lazarev,0,RU,1580044530,78,52.23,141.51,-9.36,9.71
292,Bentiu,100,SS,1580044530,12,9.23,29.83,95.18,7.92
293,Bilma,17,NE,1580044530,7,18.69,12.92,78.31,16.37
294,Vardo,100,NO,1580044524,73,70.37,31.11,22.05,24.34
295,Giyani,0,ZA,1580044531,25,-23.3,30.72,97.99,5.48
296,Philadelphia,90,US,1580044531,72,39.95,-75.16,37.99,5.91
297,Avera,1,US,1580044531,100,33.19,-82.53,37.99,4.7
298,Vysokogornyy,100,RU,1580044531,99,50.12,139.15,-11.85,3.74
299,Tibati,35,CM,1580044531,9,6.47,12.63,95.23,5.3
300,Port-Cartier,100,CA,1580044531,81,50.03,-66.87,21.99,5.41
301,Hue,100,VN,1580044531,95,16.47,107.6,63.25,7.29
302,Yakeshi,0,CN,1580044532,91,49.28,120.73,-0.15,3.94
303,Sakakah,0,SA,1580044532,37,29.97,40.21,52.61,6.67
304,Tshikapa,93,CD,1580044532,54,-6.42,20.8,87.44,5.79
305,Salalah,0,OM,1580044532,38,17.02,54.09,81.73,22.62
306,Antofagasta,0,CL,1580044266,49,-23.65,-70.4,72.0,3.47
307,Springfield,1,US,1580044532,100,37.22,-93.3,39.0,3.2
308,Gornyy,88,RU,1580044533,86,55.12,83.91,11.28,15.93
309,Beloha,60,MG,1580044533,21,-25.17,45.05,97.56,6.6
310,Sisimiut,100,GL,1580044533,92,66.94,-53.67,3.38,5.35
311,Belaya Gora,100,RU,1580044533,98,68.53,146.42,-29.74,3.44
312,Sinnamary,94,GF,1580044533,83,5.38,-52.95,80.06,17.92
313,Mirny,97,RU,1580044533,85,62.54,113.96,16.57,11.1
314,Micheweni,100,TZ,1580044534,82,-4.97,39.83,81.93,10.89
315,Methoni,90,GR,1580044534,67,36.82,21.7,60.01,18.45
316,Isangel,57,VU,1580044534,82,-19.55,169.27,78.49,13.44
317,Ahipara,16,NZ,1580044534,100,-35.17,173.17,64.0,5.12
318,Rawson,9,AR,1580044535,65,-43.3,-65.1,60.76,20.89
319,Ketchikan,100,US,1580044515,95,55.34,-131.65,34.56,5.64
320,Villa Carlos Paz,100,AR,1580044529,68,-31.42,-64.5,80.01,1.01
321,Brae,100,GB,1580044535,88,60.4,-1.35,46.18,30.69
322,Te Anau,100,NZ,1580044535,86,-45.42,167.72,54.52,7.76
323,Nchelenge,100,ZM,1580044535,86,-9.35,28.73,71.71,8.03
324,Zelenoborskiy,12,RU,1580044535,78,66.84,32.36,19.51,17.69
325,Ushtobe,95,KZ,1580044536,95,45.25,77.98,25.09,1.45
326,Ossora,85,RU,1580044536,83,59.24,163.07,25.36,11.41
327,Cap Malheureux,75,MU,1580044536,83,-19.98,57.61,78.8,13.87
328,Beringovskiy,100,RU,1580044536,86,63.05,179.32,15.04,7.23
329,Pandan,67,PH,1580044536,81,14.05,124.17,81.25,0.69
330,Angoche,77,MZ,1580044537,84,-16.23,39.91,81.86,6.15
331,Siwah,72,EG,1580044537,44,29.2,25.52,59.52,5.3
332,Bubaque,67,GW,1580044537,48,11.28,-15.83,78.71,9.51
333,Russell,100,US,1580044537,86,32.35,-85.2,35.01,4.65
334,West Wendover,100,US,1580044537,88,40.74,-114.07,34.95,2.39
335,San Vicente,1,AR,1580044538,73,-26.62,-54.13,80.01,3.06
336,San Rafael,0,AR,1580044538,24,-34.62,-68.33,80.08,7.07
337,Lorengau,91,PG,1580044257,77,-2.02,147.27,84.33,6.87
338,Nabire,100,ID,1580044498,96,-3.37,135.48,75.78,1.07
339,Gushikawa,100,JP,1580044539,88,26.35,127.87,73.0,5.01
340,Ginda,0,IN,1580044539,81,30.69,78.49,47.1,4.83
341,Kiryat Gat,0,IL,1580044539,63,31.61,34.76,61.0,4.0
342,Santiago del Estero,49,AR,1580044324,44,-27.8,-64.26,83.43,11.41
343,Pisco,86,PE,1580044539,89,-13.7,-76.22,72.0,1.32
344,Fairbanks,27,US,1580044363,58,64.84,-147.72,-13.0,4.94
345,Huaibei,100,CN,1580044540,82,33.97,116.79,37.0,10.13
346,Lima,74,PE,1580044337,72,-12.04,-77.03,73.67,2.98
347,Kulhudhuffushi,52,MV,1580044540,73,6.62,73.07,82.26,6.78
348,Corbelia,10,BR,1580044540,61,-24.8,-53.31,76.44,1.14
349,Karratha,0,AU,1580044540,77,-20.74,116.85,85.87,17.09
350,Xiangxiang,100,CN,1580044540,84,27.73,112.53,39.0,5.61
351,Pangnirtung,100,CA,1580044453,99,66.15,-65.71,-37.84,2.17
352,Tual,39,ID,1580044541,70,-5.67,132.75,84.58,3.83
353,Yerbogachen,88,RU,1580044541,83,61.28,108.01,15.71,16.37
354,Soledade,0,BR,1580044541,47,-28.82,-52.51,74.25,3.91
355,Pangody,85,RU,1580044541,100,65.85,74.49,-10.08,3.89
356,Luau,77,AO,1580044541,56,-10.71,22.22,81.82,8.32
357,Kloulklubed,87,PW,1580044268,82,7.04,134.26,82.42,16.82
358,Rocha,33,UY,1580044527,42,-34.48,-54.33,75.09,5.77
359,Yankton,0,US,1580044289,100,42.87,-97.4,26.01,7.05
360,Noboribetsu,81,JP,1580044542,45,42.45,141.17,16.0,15.05
361,Pervomayskoye,98,RU,1580044542,89,43.92,46.71,40.8,19.69
362,Copiapo,0,CL,1580044543,67,-27.37,-70.33,68.95,2.21
363,Chegdomyn,38,RU,1580044543,98,51.12,133.02,-19.77,0.4
364,Vaitape,18,PF,1580044453,75,-16.52,-151.75,82.17,8.93
365,Mikuni,100,JP,1580044543,72,36.22,136.15,44.67,20.2
366,Rexburg,90,US,1580044543,100,43.83,-111.79,32.0,3.36
367,Mulege,0,MX,1580044544,62,26.88,-111.98,59.72,3.31
368,Belyy Yar,89,RU,1580044544,87,53.6,91.39,20.14,5.73
369,Malakal,15,SS,1580044544,12,9.53,31.66,94.87,9.44
370,Mae Ramat,21,TH,1580044544,34,16.98,98.52,81.0,3.67
371,Stawell,93,AU,1580044544,67,-37.05,142.77,63.37,9.89
372,Chicama,100,PE,1580044545,79,-7.84,-79.15,71.78,2.33
373,Muisne,97,EC,1580044545,88,0.6,-80.03,76.23,5.7
374,Itupiranga,100,BR,1580044545,89,-5.13,-49.33,78.94,3.11
375,Ban Nahin,52,LA,1580044545,60,18.24,104.21,68.72,8.99
376,Coquimbo,77,CL,1580044545,91,-29.95,-71.34,63.59,4.88
377,Hualmay,67,PE,1580044545,76,-11.1,-77.61,71.91,2.01
378,Harper,66,LR,1580044545,48,4.38,-7.72,93.49,3.0
379,Taksimo,100,RU,1580044546,96,56.34,114.88,-5.75,0.76
380,Priboj,99,BA,1580044546,58,44.6,18.93,55.0,3.0
381,Smithers,100,CA,1580044546,98,54.78,-127.17,20.14,5.12
382,Kathu,2,TH,1580044546,77,7.92,98.33,81.18,15.12
383,Marang,85,MY,1580044546,78,5.21,103.21,82.0,3.0
384,Huron,99,US,1580044546,91,41.15,-82.55,34.0,7.0
385,Big Spring,0,US,1580044546,82,32.25,-101.48,37.0,1.99
386,Tsabong,0,BW,1580044547,14,-26.02,22.4,90.97,16.06
387,Buala,80,SB,1580044547,80,-8.14,159.59,79.97,5.68
388,Wuwei,0,CN,1580044547,69,37.93,102.64,23.72,7.43
389,Ponta Delgada,99,PT,1580044547,76,37.73,-25.67,61.29,6.13
390,Paine,8,CL,1580044547,35,-33.82,-70.75,81.0,3.87
391,Sambava,88,MG,1580044547,93,-14.27,50.17,79.0,3.78
392,Huarmey,83,PE,1580044547,74,-10.07,-78.15,72.46,1.57
393,Port Moresby,40,PG,1580044548,94,-9.44,147.18,78.8,3.36
394,Helena,20,US,1580044539,82,46.59,-112.04,32.0,5.82
395,Santa Cruz de la Sierra,65,BO,1580044371,36,-17.8,-63.17,80.55,5.75
396,New Glasgow,97,CA,1580044521,95,45.58,-62.65,36.0,14.0
397,Quelimane,48,MZ,1580044549,67,-17.88,36.89,83.41,6.06
398,Kaitangata,100,NZ,1580044549,93,-46.28,169.85,57.79,3.56
399,Bridlington,100,GB,1580044549,85,54.08,-0.19,48.0,8.99
400,Cartagena,47,CO,1580044549,81,10.4,-75.51,78.89,19.77
401,Luderitz,0,NA,1580044549,77,-26.65,15.16,66.96,28.7
402,Yangi Marg`ilon,100,UZ,1580044549,56,40.43,71.72,45.28,6.69
403,Kaitong,0,CN,1580044549,90,44.81,123.15,11.28,9.57
404,Kuragino,100,RU,1580044549,96,53.9,92.67,17.38,4.21
405,Takoradze,57,GH,1580044550,27,4.88,-1.76,95.9,4.09
406,Viet Tri,79,VN,1580044550,65,21.3,105.43,60.33,3.13
407,Port Lincoln,7,AU,1580044550,82,-34.73,135.87,65.41,9.48
408,Tuy Hoa,26,VN,1580044550,84,13.08,109.3,77.32,9.4
409,Katsuura,97,JP,1580044550,83,35.13,140.3,44.01,1.01
410,Kokopo,92,PG,1580044550,72,-4.35,152.26,83.79,4.65
411,Ikwiriri,96,TZ,1580044551,93,-7.96,38.97,80.28,3.38
412,Port Hawkesbury,100,CA,1580044551,93,45.62,-61.35,34.0,8.99
413,Rincon,1,US,1580044437,86,32.3,-81.24,43.0,5.82
414,Orlik,7,RU,1580044551,71,52.52,99.83,3.18,1.99
415,Aykhal,100,RU,1580044551,98,66.0,111.5,-15.61,4.72
416,Onalaska,100,US,1580044551,90,43.88,-91.24,28.99,1.01
417,Khuzhir,78,RU,1580044551,78,53.19,107.34,19.4,1.79
418,Paamiut,13,GL,1580044552,68,61.99,-49.67,15.58,22.93
419,Cavalcante,100,BR,1580044461,98,-13.8,-47.46,64.69,6.71
420,Shetpe,100,KZ,1580044552,85,44.17,52.12,37.62,21.79
421,Bontang,72,ID,1580044552,79,0.13,117.5,82.04,7.7
422,Dapitan,35,PH,1580044552,93,8.65,123.42,74.77,1.25
423,Krasnoarmeysk,96,RU,1580044552,53,51.02,45.7,32.0,10.0
424,Mariselu,100,RO,1580044552,67,47.02,24.52,43.0,1.01
425,Nouadhibou,53,MR,1580044553,49,20.93,-17.03,67.8,13.04
426,Westport,1,US,1580044289,93,41.14,-73.36,39.0,8.05
427,Inta,90,RU,1580044553,97,66.03,60.17,-5.03,5.99
428,Vilyuysk,100,RU,1580044553,97,63.76,121.62,-19.52,13.11
429,Chapais,100,CA,1580044553,97,49.78,-74.85,24.98,4.56
430,Vestmanna,96,FO,1580044553,65,62.16,-7.17,40.8,32.37
431,Porto Belo,1,BR,1580044553,81,-27.16,-48.55,84.0,3.0
432,Caravelas,100,BR,1580044554,88,-17.71,-39.25,76.95,15.55
433,Nshamba,76,TZ,1580044554,57,-1.8,31.55,77.47,5.37
434,Ixtapa,94,MX,1580044554,100,20.7,-105.2,69.01,1.25
435,Jos,74,NG,1580044554,10,9.92,8.9,80.08,9.44
436,Hasaki,99,JP,1580044554,99,35.73,140.83,36.0,11.39
437,Puerto Cabezas,0,NI,1580044554,93,14.04,-83.39,65.01,3.51
438,Upington,0,ZA,1580044554,23,-28.45,21.26,84.2,12.75
439,Frontera,67,MX,1580044555,55,26.93,-101.45,60.24,5.17
440,Sao Filipe,23,CV,1580044283,64,14.9,-24.5,76.48,14.74
441,Taltal,9,CL,1580044555,74,-25.4,-70.48,70.45,1.95
442,Praia,57,CV,1580044555,67,14.92,-23.51,73.54,12.91
443,Porto-Novo,75,BJ,1580044555,10,6.5,2.6,95.72,3.09
444,Duarte,90,US,1580044555,87,34.14,-117.98,57.2,2.86
445,Sorland,100,NO,1580044555,68,67.67,12.69,32.4,23.91
446,Sola,5,VU,1580044556,74,-13.88,167.55,83.73,11.1
447,San Miguel de Tucuman,83,AR,1580044524,56,-26.82,-65.22,81.01,4.65
448,Oodweyne,62,SO,1580044556,49,9.41,45.06,78.35,17.13
449,Wajima,96,JP,1580044556,64,37.4,136.9,43.41,14.34
450,'Ahuimanu,1,US,1580044556,80,21.44,-157.84,73.0,4.88
451,Laas,75,IT,1580044556,60,46.62,10.7,42.8,1.12
452,Elko,100,US,1580044557,81,41.0,-115.5,34.0,4.52
453,Kalaleh,0,IR,1580044557,29,37.38,55.49,51.55,3.96
454,George Town,60,MY,1580044557,70,5.41,100.34,84.0,1.99
455,Yeniseysk,100,RU,1580044557,92,58.45,92.17,15.28,6.22
456,Mount Pleasant,100,US,1580044447,86,32.79,-79.86,43.0,5.14
457,Presque Isle,90,US,1580044503,96,46.68,-68.02,32.0,5.82
458,Escalerillas,99,MX,1580044558,86,22.13,-101.07,51.85,5.46
459,Kontagora,27,NG,1580044558,6,10.4,5.47,92.05,6.22
460,Goundam,98,ML,1580044558,4,16.41,-3.67,91.18,14.38
461,Barras,59,BR,1580044558,67,-4.24,-42.29,85.24,4.76
462,Rankovce,93,MK,1580044558,55,42.17,22.12,52.0,5.99
463,Shimoda,100,JP,1580044558,76,34.67,138.95,42.01,1.01
464,Privolzhskiy,6,RU,1580044559,53,51.4,46.03,32.0,10.0
465,Prieska,0,ZA,1580044559,12,-29.66,22.75,86.77,24.27
466,Narsaq,53,GL,1580044559,72,60.92,-46.05,10.4,4.7
467,Richards Bay,15,ZA,1580044559,79,-28.78,32.04,81.45,27.81
468,Tayu,0,ID,1580044559,81,-6.54,111.05,79.05,4.12
469,Port Macquarie,100,AU,1580044559,99,-31.43,152.92,75.99,14.36
470,Jinchang,0,CN,1580044559,67,38.5,102.17,20.93,1.36
471,Blagoveshchenka,78,RU,1580044559,86,52.83,79.87,9.95,13.38
472,Amahai,95,ID,1580044560,67,-3.33,128.92,85.01,2.75
473,Coruripe,45,BR,1580044560,73,-10.13,-36.18,83.88,15.88
474,Progreso,0,MX,1580044560,93,21.28,-89.67,66.0,16.82
475,Tsiroanomandidy,78,MG,1580044560,65,-18.77,46.03,81.63,4.88
476,Inirida,58,CO,1580044561,94,3.87,-67.92,76.5,1.34
477,Norman Wells,100,CA,1580044561,97,65.28,-126.83,-20.83,4.47
478,Rognan,100,NO,1580044561,69,67.1,15.39,27.0,21.99
479,San Juan,46,AR,1580044386,28,-31.54,-68.54,83.7,19.53
480,Sarahan,0,IN,1580044561,83,31.52,77.8,16.68,1.57
481,Ebolowa,0,CM,1580044561,13,2.9,11.15,92.61,3.87
482,Porto de Moz,98,BR,1580044561,87,-1.75,-52.24,80.24,3.42
483,Bjornevatn,67,NO,1580044562,81,69.67,29.98,12.69,11.92
484,Nishihara,100,JP,1580044562,88,26.18,127.76,73.0,5.01
485,Virginia Beach,75,US,1580044517,74,36.85,-75.98,39.99,5.82
486,Palmer,40,US,1580044562,92,42.16,-72.33,37.99,5.82
487,Byron Bay,46,AU,1580044562,87,-28.65,153.62,77.0,1.99
488,Esim,57,GH,1580044563,27,4.87,-2.24,95.9,4.09
489,Pemangkat,85,ID,1580044563,88,1.17,108.97,79.83,6.06
490,Topolevo,5,RU,1580044563,88,48.5,135.2,2.7,14.79
491,Udachny,100,RU,1580044563,97,66.42,112.4,-19.23,4.34
492,Farnes,100,NO,1580044563,97,61.32,7.8,27.86,6.24
493,Tselinnoye,42,RU,1580044563,87,53.08,85.67,7.45,7.9
494,Alofi,1,NU,1580044563,83,-19.06,-169.92,80.87,8.16
495,La Peca,100,PE,1580044564,92,-5.61,-78.44,65.14,0.98
496,Celestun,0,MX,1580044564,87,20.87,-90.4,70.16,16.53
497,Weihe,100,CN,1580044564,96,33.0,105.32,29.41,1.81
498,Bulgan,95,MN,1580044564,68,48.81,103.53,9.34,3.94
499,Bongandanga,55,CD,1580044565,12,1.5,21.05,99.81,4.99
500,Marsabit,100,KE,1580044565,61,2.33,37.99,81.25,18.07
501,Imbituba,0,BR,1580044565,72,-28.24,-48.67,76.48,9.93
502,Venado Tuerto,0,AR,1580044565,42,-33.75,-61.97,86.0,1.01
503,Leningradskiy,98,RU,1580044565,92,69.38,178.42,-9.38,4.27
504,Lulea,100,SE,1580044565,84,65.58,22.15,10.04,8.03
505,Ubari,5,LY,1580044565,9,26.59,12.78,71.85,1.54
506,Fredericksburg,1,US,1580044566,100,38.3,-77.46,37.99,3.65
507,Morehead,93,US,1580044566,91,37.27,-87.18,34.0,4.14
508,Riyadh,0,SA,1580044566,23,24.69,46.72,56.39,14.81
509,Male,99,MV,1580044566,71,4.17,73.51,81.82,6.73
510,Jacareacanga,94,BR,1580044566,93,-6.22,-57.75,76.51,0.27
511,Comodoro Rivadavia,14,AR,1580044502,51,-45.87,-67.5,59.95,19.24
512,Veraval,0,IN,1580044567,34,20.9,70.37,78.69,10.42
513,Saint-Nazaire,71,FR,1580044567,91,47.28,-2.2,54.0,5.01
514,Kyren,30,RU,1580044567,56,51.68,102.14,11.01,9.6
515,Sakaiminato,100,JP,1580044567,72,35.55,133.23,47.57,15.32
516,Ancud,11,CL,1580044567,88,-41.87,-73.82,56.44,3.33
517,Maceio,39,BR,1580044400,79,-9.67,-35.74,82.31,13.53
518,Port-Gentil,20,GA,1580044551,70,-0.72,8.78,87.8,8.05
519,Harindanga,0,IN,1580044567,57,22.04,88.32,68.76,8.72
520,Tarnogskiy Gorodok,96,RU,1580044568,94,60.5,43.58,10.92,5.1
521,Winslow,78,US,1580044372,40,35.02,-110.7,30.99,1.99
522,Tomatlan,96,MX,1580044568,96,19.93,-105.25,61.88,2.98
523,Durazno,0,UY,1580044476,62,-33.41,-56.5,79.77,8.48
524,Saint Augustine,1,US,1580044569,86,29.89,-81.31,48.0,3.18
525,Rio das Ostras,37,BR,1580044569,75,-22.53,-41.95,77.31,3.02
526,Aras,0,ES,1580044569,81,42.56,-2.36,55.0,4.0
527,Yershichi,40,RU,1580044569,84,53.67,32.75,34.14,10.85
528,Solnechnyy,40,RU,1580044569,92,50.72,136.63,-8.05,0.94
529,Nouakchott,80,MR,1580044438,35,18.09,-15.98,79.21,13.06
530,Nizwa,22,OM,1580044570,24,22.93,57.53,65.8,19.75
531,Cabra,98,ES,1580044570,74,37.47,-4.44,55.99,5.01
532,Thohoyandou,0,ZA,1580044570,29,-22.95,30.48,97.07,3.71
533,Ixtacomitan,0,MX,1580044570,91,17.42,-93.1,65.17,1.79
534,Coahuayana Viejo,22,MX,1580044524,66,18.73,-103.68,65.43,3.42
535,Arman,100,RU,1580044570,85,59.7,150.17,1.27,21.97
536,Vary,72,UA,1580044571,66,48.12,22.71,32.0,4.0
537,Rio Grande,0,BR,1580044288,71,-32.03,-52.1,81.0,1.01
538,Gobabis,25,NA,1580044571,20,-22.45,18.97,86.13,5.53
539,Griffith,90,US,1580044289,92,41.53,-87.42,33.01,10.29
540,Koumac,100,NC,1580044571,85,-20.57,164.28,73.36,4.41
541,Upata,100,VE,1580044571,82,8.01,-62.4,71.96,8.14
542,El Angel,99,EC,1580044571,92,0.62,-77.93,55.2,1.12
543,Sulangan,42,PH,1580044572,83,11.14,123.72,81.63,7.96
544,San Quintin,17,MX,1580044572,19,30.48,-115.95,42.01,3.0
545,Kuching,90,MY,1580044572,94,1.55,110.33,78.01,2.93
546,Haining,100,CN,1580044573,86,30.54,120.69,48.99,11.95
547,Bam,39,IR,1580044573,34,29.11,58.36,54.14,7.76
548,Carutapera,98,BR,1580044573,79,-1.2,-46.02,82.8,8.93
549,Sabalgarh,0,IN,1580044573,36,26.25,77.4,68.85,4.34
550,Seoul,100,KR,1580044573,56,37.57,126.98,43.03,13.4
551,Mandali,0,IQ,1580044573,37,33.75,45.55,55.56,16.46
552,Centralia,90,US,1580044573,100,46.72,-122.95,50.0,9.17
553,Salamanca,0,ES,1580044574,38,40.83,-6.0,48.99,10.33
554,Olafsvik,100,IS,1580044574,81,64.89,-23.71,33.89,27.45
